{"type":"FeatureCollection","features":[{"type":"Feature","geometry":{"type":"Point","coordinates":[174.1,52.7167]},"properties":{"GHCN_ID":"USW00045715","Elev":"37.2","State":"AK","Name":"SHEMYA USAF BASE","Probability_of_Snow_Depth_GT_0":0.52,"Median_of_Snow_Depth_GT_0_inches":"2","Probability_of_Snowfall_GT_0":0.66,"Median_of_Snowfall_GT_0_inches":"0.5"}},{"type":"Feature","geometry":{"type":"Point","coordinates":[171.7333,6.0833]},"properties":{"GHCN_ID":"RMC00914487","Elev":"3","State":"MH","Name":"MILI","Probability_of_Snow_Depth_GT_0":0,"Median_of_Snow_Depth_GT_0_inches":0,"Probability_of_Snowfall_GT_0":0,"Median_of_Snowfall_GT_0_inches":0}},{"type":"Feature","geometry":{"type":"Point","coordinates":[171.3833,7.0833]},"properties":{"GHCN_ID":"RMW00040710","Elev":"3","State":"MH","Name":"MAJURO WBAS AP","Probability_of_Snow_Depth_GT_0":0,"Median_of_Snow_Depth_GT_0_inches":0,"Probability_of_Snowfall_GT_0":0,"Median_of_Snowfall_GT_0_inches":0}},{"type":"Feature","geometry":{"type":"Point","coordinates":[170.25,9.4667]},"properties":{"GHCN_ID":"RMC00914903","Elev":"1.8","State":"MH","Name":"WOTJE","Probability_of_Snow_Depth_GT_0":0,"Median_of_Snow_Depth_GT_0_inches":0,"Probability_of_Snowfall_GT_0":0,"Median_of_Snowfall_GT_0_inches":0}},{"type":"Feature","geometry":{"type":"Point","coordinates":[169.65,5.9167]},"properties":{"GHCN_ID":"RMC00914304","Elev":"1.8","State":"MH","Name":"JALUIT","Probability_of_Snow_Depth_GT_0":0,"Median_of_Snow_Depth_GT_0_inches":0,"Probability_of_Snowfall_GT_0":0,"Median_of_Snowfall_GT_0_inches":0}},{"type":"Feature","geometry":{"type":"Point","coordinates":[168.8333,7.2667]},"properties":{"GHCN_ID":"RMC00913915","Elev":"1.8","State":"MH","Name":"AILINGLAPALAP","Probability_of_Snow_Depth_GT_0":0,"Median_of_Snow_Depth_GT_0_inches":0,"Probability_of_Snowfall_GT_0":0,"Median_of_Snowfall_GT_0_inches":0}},{"type":"Feature","geometry":{"type":"Point","coordinates":[167.7333,8.7333]},"properties":{"GHCN_ID":"RMW00040604","Elev":"2.1","State":"MH","Name":"KWAJALEIN","Probability_of_Snow_Depth_GT_0":0,"Median_of_Snow_Depth_GT_0_inches":0,"Probability_of_Snowfall_GT_0":0,"Median_of_Snowfall_GT_0_inches":0}},{"type":"Feature","geometry":{"type":"Point","coordinates":[166.65,19.2833]},"properties":{"GHCN_ID":"WQW00041606","Elev":"4.3","State":"UM","Name":"WAKE ISLAND","Probability_of_Snow_Depth_GT_0":0,"Median_of_Snow_Depth_GT_0_inches":0,"Probability_of_Snowfall_GT_0":0,"Median_of_Snowfall_GT_0_inches":0}},{"type":"Feature","geometry":{"type":"Point","coordinates":[162.9742,5.2739]},"properties":{"GHCN_ID":"FMC00914898","Elev":"4","State":"FM","Name":"UTWA","Probability_of_Snow_Depth_GT_0":0,"Median_of_Snow_Depth_GT_0_inches":0,"Probability_of_Snowfall_GT_0":0,"Median_of_Snowfall_GT_0_inches":0}},{"type":"Feature","geometry":{"type":"Point","coordinates":[162.9533,5.3544]},"properties":{"GHCN_ID":"FMC00914395","Elev":"2.1","State":"FM","Name":"KOSRAE","Probability_of_Snow_Depth_GT_0":0,"Median_of_Snow_Depth_GT_0_inches":0,"Probability_of_Snowfall_GT_0":0,"Median_of_Snowfall_GT_0_inches":0}},{"type":"Feature","geometry":{"type":"Point","coordinates":[160.7,6.2167]},"properties":{"GHCN_ID":"FMC00914720","Elev":"2.4","State":"FM","Name":"PINGELAP","Probability_of_Snow_Depth_GT_0":0,"Median_of_Snow_Depth_GT_0_inches":0,"Probability_of_Snowfall_GT_0":0,"Median_of_Snowfall_GT_0_inches":0}},{"type":"Feature","geometry":{"type":"Point","coordinates":[158.3064,6.8456]},"properties":{"GHCN_ID":"FMC00914482","Elev":"9.1","State":"FM","Name":"METALANIM","Probability_of_Snow_Depth_GT_0":0,"Median_of_Snow_Depth_GT_0_inches":0,"Probability_of_Snowfall_GT_0":0,"Median_of_Snowfall_GT_0_inches":0}},{"type":"Feature","geometry":{"type":"Point","coordinates":[158.2167,6.9667]},"properties":{"GHCN_ID":"FMW00040504","Elev":"36.6","State":"FM","Name":"POHNPEI WSO","Probability_of_Snow_Depth_GT_0":0,"Median_of_Snow_Depth_GT_0_inches":0,"Probability_of_Snowfall_GT_0":0,"Median_of_Snowfall_GT_0_inches":0}},{"type":"Feature","geometry":{"type":"Point","coordinates":[158.1586,6.9053]},"properties":{"GHCN_ID":"FMC00914705","Elev":"45.7","State":"FM","Name":"PAIES-KITTI","Probability_of_Snow_Depth_GT_0":0,"Median_of_Snow_Depth_GT_0_inches":0,"Probability_of_Snowfall_GT_0":0,"Median_of_Snowfall_GT_0_inches":0}},{"type":"Feature","geometry":{"type":"Point","coordinates":[155.0167,3.85]},"properties":{"GHCN_ID":"FMC00914590","Elev":"2.4","State":"FM","Name":"NUKUORO","Probability_of_Snow_Depth_GT_0":0,"Median_of_Snow_Depth_GT_0_inches":0,"Probability_of_Snowfall_GT_0":0,"Median_of_Snowfall_GT_0_inches":0}},{"type":"Feature","geometry":{"type":"Point","coordinates":[154.8,1.0833]},"properties":{"GHCN_ID":"FMC00914325","Elev":"2.7","State":"FM","Name":"KAPINGAMARANGI","Probability_of_Snow_Depth_GT_0":0,"Median_of_Snow_Depth_GT_0_inches":0,"Probability_of_Snowfall_GT_0":0,"Median_of_Snowfall_GT_0_inches":0}},{"type":"Feature","geometry":{"type":"Point","coordinates":[153.8167,5.5167]},"properties":{"GHCN_ID":"FMC00914419","Elev":"1.5","State":"FM","Name":"LUKUNOCH","Probability_of_Snow_Depth_GT_0":0,"Median_of_Snow_Depth_GT_0_inches":0,"Probability_of_Snowfall_GT_0":0,"Median_of_Snowfall_GT_0_inches":0}},{"type":"Feature","geometry":{"type":"Point","coordinates":[151.8333,7.45]},"properties":{"GHCN_ID":"FMW00040505","Elev":"1.5","State":"FM","Name":"CHUUK WSO AP","Probability_of_Snow_Depth_GT_0":0,"Median_of_Snow_Depth_GT_0_inches":0,"Probability_of_Snowfall_GT_0":0,"Median_of_Snowfall_GT_0_inches":0}},{"type":"Feature","geometry":{"type":"Point","coordinates":[149.2,7.35]},"properties":{"GHCN_ID":"FMC00914761","Elev":"2.1","State":"FM","Name":"POLOWAT","Probability_of_Snow_Depth_GT_0":0,"Median_of_Snow_Depth_GT_0_inches":0,"Probability_of_Snowfall_GT_0":0,"Median_of_Snowfall_GT_0_inches":0}},{"type":"Feature","geometry":{"type":"Point","coordinates":[145.7497,15.2136]},"properties":{"GHCN_ID":"CQC00914080","Elev":"252.1","State":"MP","Name":"CAPITOL HILL 1","Probability_of_Snow_Depth_GT_0":0,"Median_of_Snow_Depth_GT_0_inches":0,"Probability_of_Snowfall_GT_0":0,"Median_of_Snowfall_GT_0_inches":0}},{"type":"Feature","geometry":{"type":"Point","coordinates":[145.7294,15.1189]},"properties":{"GHCN_ID":"CQC00914855","Elev":"65.5","State":"MP","Name":"SAIPAN INTL AP","Probability_of_Snow_Depth_GT_0":0,"Median_of_Snow_Depth_GT_0_inches":0,"Probability_of_Snowfall_GT_0":0,"Median_of_Snowfall_GT_0_inches":0}},{"type":"Feature","geometry":{"type":"Point","coordinates":[145.6333,15]},"properties":{"GHCN_ID":"CQC00914874","Elev":"81.7","State":"MP","Name":"TINIAN","Probability_of_Snow_Depth_GT_0":0,"Median_of_Snow_Depth_GT_0_inches":0,"Probability_of_Snowfall_GT_0":0,"Median_of_Snowfall_GT_0_inches":0}},{"type":"Feature","geometry":{"type":"Point","coordinates":[145.2428,14.1717]},"properties":{"GHCN_ID":"CQC00914801","Elev":"179.2","State":"MP","Name":"ROTA AP","Probability_of_Snow_Depth_GT_0":0,"Median_of_Snow_Depth_GT_0_inches":0,"Probability_of_Snowfall_GT_0":0,"Median_of_Snowfall_GT_0_inches":0}},{"type":"Feature","geometry":{"type":"Point","coordinates":[144.9281,13.5761]},"properties":{"GHCN_ID":"GQC00914025","Elev":"190.2","State":"GU","Name":"ANDERSEN AFB GUAM","Probability_of_Snow_Depth_GT_0":0,"Median_of_Snow_Depth_GT_0_inches":0,"Probability_of_Snowfall_GT_0":0,"Median_of_Snowfall_GT_0_inches":0}},{"type":"Feature","geometry":{"type":"Point","coordinates":[144.8928,13.5478]},"properties":{"GHCN_ID":"GQC00914950","Elev":"160","State":"GU","Name":"YIGO","Probability_of_Snow_Depth_GT_0":0,"Median_of_Snow_Depth_GT_0_inches":0,"Probability_of_Snowfall_GT_0":0,"Median_of_Snowfall_GT_0_inches":0}},{"type":"Feature","geometry":{"type":"Point","coordinates":[144.8472,13.52]},"properties":{"GHCN_ID":"GQC00914156","Elev":"106.7","State":"GU","Name":"DEDEDO","Probability_of_Snow_Depth_GT_0":0,"Median_of_Snow_Depth_GT_0_inches":0,"Probability_of_Snowfall_GT_0":0,"Median_of_Snowfall_GT_0_inches":0}},{"type":"Feature","geometry":{"type":"Point","coordinates":[144.7981,13.4528]},"properties":{"GHCN_ID":"GQC00914468","Elev":"18.3","State":"GU","Name":"MANGILAO","Probability_of_Snow_Depth_GT_0":0,"Median_of_Snow_Depth_GT_0_inches":0,"Probability_of_Snowfall_GT_0":0,"Median_of_Snowfall_GT_0_inches":0}},{"type":"Feature","geometry":{"type":"Point","coordinates":[144.7961,13.4836]},"properties":{"GHCN_ID":"GQW00041415","Elev":"77.4","State":"GU","Name":"GUAM INTL AP","Probability_of_Snow_Depth_GT_0":0,"Median_of_Snow_Depth_GT_0_inches":0,"Probability_of_Snowfall_GT_0":0,"Median_of_Snowfall_GT_0_inches":0}},{"type":"Feature","geometry":{"type":"Point","coordinates":[144.6575,13.3894]},"properties":{"GHCN_ID":"GQC00914001","Elev":"3","State":"GU","Name":"AGAT","Probability_of_Snow_Depth_GT_0":0,"Median_of_Snow_Depth_GT_0_inches":0,"Probability_of_Snowfall_GT_0":0,"Median_of_Snowfall_GT_0_inches":0}},{"type":"Feature","geometry":{"type":"Point","coordinates":[143.9167,7.3833]},"properties":{"GHCN_ID":"FMC00914911","Elev":"2.1","State":"FM","Name":"WOLEAI ATOLL","Probability_of_Snow_Depth_GT_0":0,"Median_of_Snow_Depth_GT_0_inches":0,"Probability_of_Snowfall_GT_0":0,"Median_of_Snowfall_GT_0_inches":0}},{"type":"Feature","geometry":{"type":"Point","coordinates":[139.8,10.0333]},"properties":{"GHCN_ID":"FMC00914892","Elev":"1.8","State":"FM","Name":"ULITHI","Probability_of_Snow_Depth_GT_0":0,"Median_of_Snow_Depth_GT_0_inches":0,"Probability_of_Snowfall_GT_0":0,"Median_of_Snowfall_GT_0_inches":0}},{"type":"Feature","geometry":{"type":"Point","coordinates":[138.1786,9.6053]},"properties":{"GHCN_ID":"FMC00914446","Elev":"14.9","State":"FM","Name":"MAAP","Probability_of_Snow_Depth_GT_0":0,"Median_of_Snow_Depth_GT_0_inches":0,"Probability_of_Snowfall_GT_0":0,"Median_of_Snowfall_GT_0_inches":0}},{"type":"Feature","geometry":{"type":"Point","coordinates":[138.1592,9.6244]},"properties":{"GHCN_ID":"FMC00914808","Elev":"19.8","State":"FM","Name":"RUMUNG","Probability_of_Snow_Depth_GT_0":0,"Median_of_Snow_Depth_GT_0_inches":0,"Probability_of_Snowfall_GT_0":0,"Median_of_Snowfall_GT_0_inches":0}},{"type":"Feature","geometry":{"type":"Point","coordinates":[138.15,9.55]},"properties":{"GHCN_ID":"FMC00914831","Elev":"21.3","State":"FM","Name":"TAMIL","Probability_of_Snow_Depth_GT_0":0,"Median_of_Snow_Depth_GT_0_inches":0,"Probability_of_Snowfall_GT_0":0,"Median_of_Snowfall_GT_0_inches":0}},{"type":"Feature","geometry":{"type":"Point","coordinates":[138.1108,9.5742]},"properties":{"GHCN_ID":"FMC00914585","Elev":"3","State":"FM","Name":"NORTH FANIF","Probability_of_Snow_Depth_GT_0":0,"Median_of_Snow_Depth_GT_0_inches":0,"Probability_of_Snowfall_GT_0":0,"Median_of_Snowfall_GT_0_inches":0}},{"type":"Feature","geometry":{"type":"Point","coordinates":[138.0833,9.4833]},"properties":{"GHCN_ID":"FMC00914429","Elev":"10.1","State":"FM","Name":"LUWEECH","Probability_of_Snow_Depth_GT_0":0,"Median_of_Snow_Depth_GT_0_inches":0,"Probability_of_Snowfall_GT_0":0,"Median_of_Snowfall_GT_0_inches":0}},{"type":"Feature","geometry":{"type":"Point","coordinates":[138.0833,9.4833]},"properties":{"GHCN_ID":"FMW00040308","Elev":"13.4","State":"FM","Name":"YAP ISLAND WSO AP","Probability_of_Snow_Depth_GT_0":0,"Median_of_Snow_Depth_GT_0_inches":0,"Probability_of_Snowfall_GT_0":0,"Median_of_Snowfall_GT_0_inches":0}},{"type":"Feature","geometry":{"type":"Point","coordinates":[138.062,9.4508]},"properties":{"GHCN_ID":"FMC00914213","Elev":"15.2","State":"FM","Name":"GILMAN","Probability_of_Snow_Depth_GT_0":0,"Median_of_Snow_Depth_GT_0_inches":0,"Probability_of_Snowfall_GT_0":0,"Median_of_Snowfall_GT_0_inches":0}},{"type":"Feature","geometry":{"type":"Point","coordinates":[134.5,7.45]},"properties":{"GHCN_ID":"PSC00914519","Elev":"31.1","State":"PW","Name":"NEKKEN FORESTRY","Probability_of_Snow_Depth_GT_0":0,"Median_of_Snow_Depth_GT_0_inches":0,"Probability_of_Snowfall_GT_0":0,"Median_of_Snowfall_GT_0_inches":0}},{"type":"Feature","geometry":{"type":"Point","coordinates":[134.4833,7.3333]},"properties":{"GHCN_ID":"PSW00040309","Elev":"28.7","State":"PW","Name":"KOROR WSO","Probability_of_Snow_Depth_GT_0":0,"Median_of_Snow_Depth_GT_0_inches":0,"Probability_of_Snowfall_GT_0":0,"Median_of_Snowfall_GT_0_inches":0}},{"type":"Feature","geometry":{"type":"Point","coordinates":[-64.6128,17.7603]},"properties":{"GHCN_ID":"VQC00671810","Elev":"42.7","State":"VI","Name":"COTTON VALLEY 2","Probability_of_Snow_Depth_GT_0":0,"Median_of_Snow_Depth_GT_0_inches":0,"Probability_of_Snowfall_GT_0":0,"Median_of_Snowfall_GT_0_inches":0}},{"type":"Feature","geometry":{"type":"Point","coordinates":[-64.6494,17.7561]},"properties":{"GHCN_ID":"VQC00672560","Elev":"36.6","State":"VI","Name":"EAST HILL","Probability_of_Snow_Depth_GT_0":0,"Median_of_Snow_Depth_GT_0_inches":0,"Probability_of_Snowfall_GT_0":0,"Median_of_Snowfall_GT_0_inches":0}},{"type":"Feature","geometry":{"type":"Point","coordinates":[-64.6603,17.7419]},"properties":{"GHCN_ID":"VQC00672870","Elev":"39.6","State":"VI","Name":"ESTATE THE SIGHT","Probability_of_Snow_Depth_GT_0":0,"Median_of_Snow_Depth_GT_0_inches":0,"Probability_of_Snowfall_GT_0":0,"Median_of_Snowfall_GT_0_inches":0}},{"type":"Feature","geometry":{"type":"Point","coordinates":[-64.7014,17.7469]},"properties":{"GHCN_ID":"VQC00671740","Elev":"9.1","State":"VI","Name":"CHRISTIANSTED FT","Probability_of_Snow_Depth_GT_0":0,"Median_of_Snow_Depth_GT_0_inches":0,"Probability_of_Snowfall_GT_0":0,"Median_of_Snowfall_GT_0_inches":0}},{"type":"Feature","geometry":{"type":"Point","coordinates":[-64.7117,17.7164]},"properties":{"GHCN_ID":"VQC00673677","Elev":"19.8","State":"VI","Name":"GRANARD","Probability_of_Snow_Depth_GT_0":0,"Median_of_Snow_Depth_GT_0_inches":0,"Probability_of_Snowfall_GT_0":0,"Median_of_Snowfall_GT_0_inches":0}},{"type":"Feature","geometry":{"type":"Point","coordinates":[-64.7136,18.3492]},"properties":{"GHCN_ID":"VQC00671790","Elev":"9.1","State":"VI","Name":"CORAL BAY","Probability_of_Snow_Depth_GT_0":0,"Median_of_Snow_Depth_GT_0_inches":0,"Probability_of_Snowfall_GT_0":0,"Median_of_Snowfall_GT_0_inches":0}},{"type":"Feature","geometry":{"type":"Point","coordinates":[-64.7553,17.7706]},"properties":{"GHCN_ID":"VQC00674900","Elev":"61","State":"VI","Name":"MONTPELLIER","Probability_of_Snow_Depth_GT_0":0,"Median_of_Snow_Depth_GT_0_inches":0,"Probability_of_Snowfall_GT_0":0,"Median_of_Snowfall_GT_0_inches":0}},{"type":"Feature","geometry":{"type":"Point","coordinates":[-64.7594,18.3347]},"properties":{"GHCN_ID":"VQC00672551","Elev":"32","State":"VI","Name":"EAST END","Probability_of_Snow_Depth_GT_0":0,"Median_of_Snow_Depth_GT_0_inches":0,"Probability_of_Snowfall_GT_0":0,"Median_of_Snowfall_GT_0_inches":0}},{"type":"Feature","geometry":{"type":"Point","coordinates":[-64.8056,17.7028]},"properties":{"GHCN_ID":"VQW00011624","Elev":"18.6","State":"VI","Name":"CHRISTIANSTED AP","Probability_of_Snow_Depth_GT_0":0,"Median_of_Snow_Depth_GT_0_inches":0,"Probability_of_Snowfall_GT_0":0,"Median_of_Snowfall_GT_0_inches":0}},{"type":"Feature","geometry":{"type":"Point","coordinates":[-64.8333,17.75]},"properties":{"GHCN_ID":"VQC00673150","Elev":"76.2","State":"VI","Name":"FOUNTAIN","Probability_of_Snow_Depth_GT_0":0,"Median_of_Snow_Depth_GT_0_inches":0,"Probability_of_Snowfall_GT_0":0,"Median_of_Snowfall_GT_0_inches":0}},{"type":"Feature","geometry":{"type":"Point","coordinates":[-64.8625,17.7564]},"properties":{"GHCN_ID":"VQC00670240","Elev":"213.4","State":"VI","Name":"ANNALY","Probability_of_Snow_Depth_GT_0":0,"Median_of_Snow_Depth_GT_0_inches":0,"Probability_of_Snowfall_GT_0":0,"Median_of_Snowfall_GT_0_inches":0}},{"type":"Feature","geometry":{"type":"Point","coordinates":[-64.9167,18.3503]},"properties":{"GHCN_ID":"VQC00679450","Elev":"196.6","State":"VI","Name":"WINTBERG","Probability_of_Snow_Depth_GT_0":0,"Median_of_Snow_Depth_GT_0_inches":0,"Probability_of_Snowfall_GT_0":0,"Median_of_Snowfall_GT_0_inches":0}},{"type":"Feature","geometry":{"type":"Point","coordinates":[-65.6408,18.255]},"properties":{"GHCN_ID":"RQW00011630","Elev":"10.1","State":"PR","Name":"ROOSEVELT ROADS","Probability_of_Snow_Depth_GT_0":0,"Median_of_Snow_Depth_GT_0_inches":0,"Probability_of_Snowfall_GT_0":0,"Median_of_Snowfall_GT_0_inches":0}},{"type":"Feature","geometry":{"type":"Point","coordinates":[-65.6631,18.3103]},"properties":{"GHCN_ID":"RQC00663657","Elev":"9.1","State":"PR","Name":"FAJARDO","Probability_of_Snow_Depth_GT_0":0,"Median_of_Snow_Depth_GT_0_inches":0,"Probability_of_Snowfall_GT_0":0,"Median_of_Snowfall_GT_0_inches":0}},{"type":"Feature","geometry":{"type":"Point","coordinates":[-65.7208,18.265]},"properties":{"GHCN_ID":"RQC00666805","Elev":"109.7","State":"PR","Name":"PARAISO","Probability_of_Snow_Depth_GT_0":0,"Median_of_Snow_Depth_GT_0_inches":0,"Probability_of_Snowfall_GT_0":0,"Median_of_Snowfall_GT_0_inches":0}},{"type":"Feature","geometry":{"type":"Point","coordinates":[-65.7592,18.2708]},"properties":{"GHCN_ID":"RQC00666992","Elev":"1051","State":"PR","Name":"PICO DEL ESTE","Probability_of_Snow_Depth_GT_0":0,"Median_of_Snow_Depth_GT_0_inches":0,"Probability_of_Snowfall_GT_0":0,"Median_of_Snowfall_GT_0_inches":0}},{"type":"Feature","geometry":{"type":"Point","coordinates":[-65.785,18.2433]},"properties":{"GHCN_ID":"RQC00668144","Elev":"39.6","State":"PR","Name":"RIO BLANCO LOWER","Probability_of_Snow_Depth_GT_0":0,"Median_of_Snow_Depth_GT_0_inches":0,"Probability_of_Snowfall_GT_0":0,"Median_of_Snowfall_GT_0_inches":0}},{"type":"Feature","geometry":{"type":"Point","coordinates":[-65.8939,18.3792]},"properties":{"GHCN_ID":"RQC00661590","Elev":"9.1","State":"PR","Name":"CANOVANAS","Probability_of_Snow_Depth_GT_0":0,"Median_of_Snow_Depth_GT_0_inches":0,"Probability_of_Snowfall_GT_0":0,"Median_of_Snowfall_GT_0_inches":0}},{"type":"Feature","geometry":{"type":"Point","coordinates":[-65.8989,18.0094]},"properties":{"GHCN_ID":"RQC00666050","Elev":"14.9","State":"PR","Name":"MAUNABO","Probability_of_Snow_Depth_GT_0":0,"Median_of_Snow_Depth_GT_0_inches":0,"Probability_of_Snowfall_GT_0":0,"Median_of_Snowfall_GT_0_inches":0}},{"type":"Feature","geometry":{"type":"Point","coordinates":[-65.9114,18.2264]},"properties":{"GHCN_ID":"RQC00665064","Elev":"64.9","State":"PR","Name":"JUNCOS 1 SE","Probability_of_Snow_Depth_GT_0":0,"Median_of_Snow_Depth_GT_0_inches":0,"Probability_of_Snowfall_GT_0":0,"Median_of_Snowfall_GT_0_inches":0}},{"type":"Feature","geometry":{"type":"Point","coordinates":[-65.9589,18.1517]},"properties":{"GHCN_ID":"RQC00668815","Elev":"155.4","State":"PR","Name":"SAN LORENZO 3S","Probability_of_Snow_Depth_GT_0":0,"Median_of_Snow_Depth_GT_0_inches":0,"Probability_of_Snowfall_GT_0":0,"Median_of_Snowfall_GT_0_inches":0}},{"type":"Feature","geometry":{"type":"Point","coordinates":[-65.9922,18.2583]},"properties":{"GHCN_ID":"RQC00664276","Elev":"48.8","State":"PR","Name":"GURABO SUBSTN","Probability_of_Snow_Depth_GT_0":0,"Median_of_Snow_Depth_GT_0_inches":0,"Probability_of_Snowfall_GT_0":0,"Median_of_Snowfall_GT_0_inches":0}},{"type":"Feature","geometry":{"type":"Point","coordinates":[-66.0108,18.4325]},"properties":{"GHCN_ID":"RQW00011641","Elev":"2.7","State":"PR","Name":"SAN JUAN L M MARIN","Probability_of_Snow_Depth_GT_0":0,"Median_of_Snow_Depth_GT_0_inches":0,"Probability_of_Snowfall_GT_0":0,"Median_of_Snowfall_GT_0_inches":0}},{"type":"Feature","geometry":{"type":"Point","coordinates":[-66.0128,18.0025]},"properties":{"GHCN_ID":"RQC00666900","Elev":"13.7","State":"PR","Name":"PATILLAS","Probability_of_Snow_Depth_GT_0":0,"Median_of_Snow_Depth_GT_0_inches":0,"Probability_of_Snowfall_GT_0":0,"Median_of_Snowfall_GT_0_inches":0}},{"type":"Feature","geometry":{"type":"Point","coordinates":[-66.0164,18.3283]},"properties":{"GHCN_ID":"RQC00669521","Elev":"35.1","State":"PR","Name":"TRUJILLO ALTO 2 SSW","Probability_of_Snow_Depth_GT_0":0,"Median_of_Snow_Depth_GT_0_inches":0,"Probability_of_Snowfall_GT_0":0,"Median_of_Snowfall_GT_0_inches":0}},{"type":"Feature","geometry":{"type":"Point","coordinates":[-66.0542,18.3906]},"properties":{"GHCN_ID":"RQC00668306","Elev":"28","State":"PR","Name":"RIO PIEDRAS EXP STN","Probability_of_Snow_Depth_GT_0":0,"Median_of_Snow_Depth_GT_0_inches":0,"Probability_of_Snowfall_GT_0":0,"Median_of_Snowfall_GT_0_inches":0}},{"type":"Feature","geometry":{"type":"Point","coordinates":[-66.0875,17.9783]},"properties":{"GHCN_ID":"RQC00664193","Elev":"21.9","State":"PR","Name":"GUAYAMA 2E","Probability_of_Snow_Depth_GT_0":0,"Median_of_Snow_Depth_GT_0_inches":0,"Probability_of_Snowfall_GT_0":0,"Median_of_Snowfall_GT_0_inches":0}},{"type":"Feature","geometry":{"type":"Point","coordinates":[-66.1,18.3167]},"properties":{"GHCN_ID":"RQC00665123","Elev":"88.4","State":"PR","Name":"LA MUDA CAGUAS","Probability_of_Snow_Depth_GT_0":0,"Median_of_Snow_Depth_GT_0_inches":0,"Probability_of_Snowfall_GT_0":0,"Median_of_Snowfall_GT_0_inches":0}},{"type":"Feature","geometry":{"type":"Point","coordinates":[-66.1428,18.0717]},"properties":{"GHCN_ID":"RQC00664867","Elev":"719.3","State":"PR","Name":"JAJOME ALTO","Probability_of_Snow_Depth_GT_0":0,"Median_of_Snow_Depth_GT_0_inches":0,"Probability_of_Snowfall_GT_0":0,"Median_of_Snowfall_GT_0_inches":0}},{"type":"Feature","geometry":{"type":"Point","coordinates":[-66.15,18.1833]},"properties":{"GHCN_ID":"RQC00662634","Elev":"426.7","State":"PR","Name":"CIDRA 1 E","Probability_of_Snow_Depth_GT_0":0,"Median_of_Snow_Depth_GT_0_inches":0,"Probability_of_Snowfall_GT_0":0,"Median_of_Snowfall_GT_0_inches":0}},{"type":"Feature","geometry":{"type":"Point","coordinates":[-66.1658,18.1189]},"properties":{"GHCN_ID":"RQC00661901","Elev":"395","State":"PR","Name":"CAYEY 1 E","Probability_of_Snow_Depth_GT_0":0,"Median_of_Snow_Depth_GT_0_inches":0,"Probability_of_Snowfall_GT_0":0,"Median_of_Snowfall_GT_0_inches":0}},{"type":"Feature","geometry":{"type":"Point","coordinates":[-66.2222,17.9556]},"properties":{"GHCN_ID":"RQC00660152","Elev":"7.6","State":"PR","Name":"AGUIRRE","Probability_of_Snow_Depth_GT_0":0,"Median_of_Snow_Depth_GT_0_inches":0,"Probability_of_Snowfall_GT_0":0,"Median_of_Snowfall_GT_0_inches":0}},{"type":"Feature","geometry":{"type":"Point","coordinates":[-66.2642,18.1281]},"properties":{"GHCN_ID":"RQC00660158","Elev":"710.2","State":"PR","Name":"AIBONITO 1 S","Probability_of_Snow_Depth_GT_0":0,"Median_of_Snow_Depth_GT_0_inches":0,"Probability_of_Snowfall_GT_0":0,"Median_of_Snowfall_GT_0_inches":0}},{"type":"Feature","geometry":{"type":"Point","coordinates":[-66.2667,18.4333]},"properties":{"GHCN_ID":"RQC00669421","Elev":"7.9","State":"PR","Name":"TOA BAJA 1 SSW","Probability_of_Snow_Depth_GT_0":0,"Median_of_Snow_Depth_GT_0_inches":0,"Probability_of_Snowfall_GT_0":0,"Median_of_Snowfall_GT_0_inches":0}},{"type":"Feature","geometry":{"type":"Point","coordinates":[-66.3058,18.4722]},"properties":{"GHCN_ID":"RQC00663409","Elev":"1.5","State":"PR","Name":"DORADO 2 WNW","Probability_of_Snow_Depth_GT_0":0,"Median_of_Snow_Depth_GT_0_inches":0,"Probability_of_Snowfall_GT_0":0,"Median_of_Snowfall_GT_0_inches":0}},{"type":"Feature","geometry":{"type":"Point","coordinates":[-66.3433,18.2886]},"properties":{"GHCN_ID":"RQC00666514","Elev":"538.3","State":"PR","Name":"NEGRO -COROZAL","Probability_of_Snow_Depth_GT_0":0,"Median_of_Snow_Depth_GT_0_inches":0,"Probability_of_Snowfall_GT_0":0,"Median_of_Snowfall_GT_0_inches":0}},{"type":"Feature","geometry":{"type":"Point","coordinates":[-66.3592,18.3267]},"properties":{"GHCN_ID":"RQC00662934","Elev":"198.1","State":"PR","Name":"COROZAL SUBSTN","Probability_of_Snow_Depth_GT_0":0,"Median_of_Snow_Depth_GT_0_inches":0,"Probability_of_Snowfall_GT_0":0,"Median_of_Snowfall_GT_0_inches":0}},{"type":"Feature","geometry":{"type":"Point","coordinates":[-66.3772,17.9692]},"properties":{"GHCN_ID":"RQC00668940","Elev":"9.1","State":"PR","Name":"SANTA ISABEL 2 ENE","Probability_of_Snow_Depth_GT_0":0,"Median_of_Snow_Depth_GT_0_inches":0,"Probability_of_Snowfall_GT_0":0,"Median_of_Snowfall_GT_0_inches":0}},{"type":"Feature","geometry":{"type":"Point","coordinates":[-66.3781,18.0664]},"properties":{"GHCN_ID":"RQC00662723","Elev":"111.3","State":"PR","Name":"COAMO 2 SW","Probability_of_Snow_Depth_GT_0":0,"Median_of_Snow_Depth_GT_0_inches":0,"Probability_of_Snowfall_GT_0":0,"Median_of_Snowfall_GT_0_inches":0}},{"type":"Feature","geometry":{"type":"Point","coordinates":[-66.4078,18.3344]},"properties":{"GHCN_ID":"RQC00666390","Elev":"182.9","State":"PR","Name":"MOROVIS 1 N","Probability_of_Snow_Depth_GT_0":0,"Median_of_Snow_Depth_GT_0_inches":0,"Probability_of_Snowfall_GT_0":0,"Median_of_Snowfall_GT_0_inches":0}},{"type":"Feature","geometry":{"type":"Point","coordinates":[-66.4661,18.4308]},"properties":{"GHCN_ID":"RQC00665807","Elev":"76.2","State":"PR","Name":"MANATI 2 E","Probability_of_Snow_Depth_GT_0":0,"Median_of_Snow_Depth_GT_0_inches":0,"Probability_of_Snowfall_GT_0":0,"Median_of_Snowfall_GT_0_inches":0}},{"type":"Feature","geometry":{"type":"Point","coordinates":[-66.4919,18.1469]},"properties":{"GHCN_ID":"RQC00660040","Elev":"598.9","State":"PR","Name":"ACEITUNA WATER TREA","Probability_of_Snow_Depth_GT_0":0,"Median_of_Snow_Depth_GT_0_inches":0,"Probability_of_Snowfall_GT_0":0,"Median_of_Snowfall_GT_0_inches":0}},{"type":"Feature","geometry":{"type":"Point","coordinates":[-66.4928,18.1731]},"properties":{"GHCN_ID":"RQC00669432","Elev":"868.1","State":"PR","Name":"TORO NEGRO FOREST","Probability_of_Snow_Depth_GT_0":0,"Median_of_Snow_Depth_GT_0_inches":0,"Probability_of_Snowfall_GT_0":0,"Median_of_Snowfall_GT_0_inches":0}},{"type":"Feature","geometry":{"type":"Point","coordinates":[-66.4967,18.0742]},"properties":{"GHCN_ID":"RQC00664126","Elev":"112.8","State":"PR","Name":"GUAYABAL","Probability_of_Snow_Depth_GT_0":0,"Median_of_Snow_Depth_GT_0_inches":0,"Probability_of_Snowfall_GT_0":0,"Median_of_Snowfall_GT_0_inches":0}},{"type":"Feature","geometry":{"type":"Point","coordinates":[-66.4986,18.0514]},"properties":{"GHCN_ID":"RQC00665020","Elev":"79.9","State":"PR","Name":"JUANA DIAZ CAMP","Probability_of_Snow_Depth_GT_0":0,"Median_of_Snow_Depth_GT_0_inches":0,"Probability_of_Snowfall_GT_0":0,"Median_of_Snowfall_GT_0_inches":0}},{"type":"Feature","geometry":{"type":"Point","coordinates":[-66.5039,18.2258]},"properties":{"GHCN_ID":"RQC00661142","Elev":"554.7","State":"PR","Name":"CACAOS-OROCOVIS","Probability_of_Snow_Depth_GT_0":0,"Median_of_Snow_Depth_GT_0_inches":0,"Probability_of_Snowfall_GT_0":0,"Median_of_Snowfall_GT_0_inches":0}},{"type":"Feature","geometry":{"type":"Point","coordinates":[-66.5056,18.1094]},"properties":{"GHCN_ID":"RQC00669774","Elev":"120.4","State":"PR","Name":"VILLALBA 1 SE","Probability_of_Snow_Depth_GT_0":0,"Median_of_Snow_Depth_GT_0_inches":0,"Probability_of_Snowfall_GT_0":0,"Median_of_Snowfall_GT_0_inches":0}},{"type":"Feature","geometry":{"type":"Point","coordinates":[-66.5153,18.3794]},"properties":{"GHCN_ID":"RQC00666270","Elev":"195.1","State":"PR","Name":"MONTE BELLO MANATI","Probability_of_Snow_Depth_GT_0":0,"Median_of_Snow_Depth_GT_0_inches":0,"Probability_of_Snowfall_GT_0":0,"Median_of_Snowfall_GT_0_inches":0}},{"type":"Feature","geometry":{"type":"Point","coordinates":[-66.5194,18.2764]},"properties":{"GHCN_ID":"RQC00662330","Elev":"291.1","State":"PR","Name":"CERRO GORDO CIALES","Probability_of_Snow_Depth_GT_0":0,"Median_of_Snow_Depth_GT_0_inches":0,"Probability_of_Snowfall_GT_0":0,"Median_of_Snowfall_GT_0_inches":0}},{"type":"Feature","geometry":{"type":"Point","coordinates":[-66.5253,18.0258]},"properties":{"GHCN_ID":"RQC00667292","Elev":"21.3","State":"PR","Name":"PONCE 4 E","Probability_of_Snow_Depth_GT_0":0,"Median_of_Snow_Depth_GT_0_inches":0,"Probability_of_Snowfall_GT_0":0,"Median_of_Snowfall_GT_0_inches":0}},{"type":"Feature","geometry":{"type":"Point","coordinates":[-66.562,18.1547]},"properties":{"GHCN_ID":"RQC00662336","Elev":"1219.8","State":"PR","Name":"CERRO MARAVILLA","Probability_of_Snow_Depth_GT_0":0,"Median_of_Snow_Depth_GT_0_inches":0,"Probability_of_Snowfall_GT_0":0,"Median_of_Snowfall_GT_0_inches":0}},{"type":"Feature","geometry":{"type":"Point","coordinates":[-66.5631,18.4286]},"properties":{"GHCN_ID":"RQC00660668","Elev":"73.2","State":"PR","Name":"BARCELONETA 3 SW","Probability_of_Snow_Depth_GT_0":0,"Median_of_Snow_Depth_GT_0_inches":0,"Probability_of_Snowfall_GT_0":0,"Median_of_Snowfall_GT_0_inches":0}},{"type":"Feature","geometry":{"type":"Point","coordinates":[-66.5931,18.215]},"properties":{"GHCN_ID":"RQC00664910","Elev":"469.4","State":"PR","Name":"JAYUYA","Probability_of_Snow_Depth_GT_0":0,"Median_of_Snow_Depth_GT_0_inches":0,"Probability_of_Snowfall_GT_0":0,"Median_of_Snowfall_GT_0_inches":0}},{"type":"Feature","geometry":{"type":"Point","coordinates":[-66.6294,17.985]},"properties":{"GHCN_ID":"RQC00667295","Elev":"3","State":"PR","Name":"PONCE CITY","Probability_of_Snow_Depth_GT_0":0,"Median_of_Snow_Depth_GT_0_inches":0,"Probability_of_Snowfall_GT_0":0,"Median_of_Snowfall_GT_0_inches":0}},{"type":"Feature","geometry":{"type":"Point","coordinates":[-66.6547,18.0836]},"properties":{"GHCN_ID":"RQC00663023","Elev":"175","State":"PR","Name":"CORRAL VIEJO","Probability_of_Snow_Depth_GT_0":0,"Median_of_Snow_Depth_GT_0_inches":0,"Probability_of_Snowfall_GT_0":0,"Median_of_Snowfall_GT_0_inches":0}},{"type":"Feature","geometry":{"type":"Point","coordinates":[-66.6667,18.3361]},"properties":{"GHCN_ID":"RQC00663431","Elev":"61","State":"PR","Name":"DOS BOCAS","Probability_of_Snow_Depth_GT_0":0,"Median_of_Snow_Depth_GT_0_inches":0,"Probability_of_Snowfall_GT_0":0,"Median_of_Snowfall_GT_0_inches":0}},{"type":"Feature","geometry":{"type":"Point","coordinates":[-66.6864,18.2617]},"properties":{"GHCN_ID":"RQC00669608","Elev":"158.5","State":"PR","Name":"UTUADO","Probability_of_Snow_Depth_GT_0":0,"Median_of_Snow_Depth_GT_0_inches":0,"Probability_of_Snowfall_GT_0":0,"Median_of_Snowfall_GT_0_inches":0}},{"type":"Feature","geometry":{"type":"Point","coordinates":[-66.7183,18.0586]},"properties":{"GHCN_ID":"RQC00666983","Elev":"143.3","State":"PR","Name":"PENUELAS 1 E","Probability_of_Snow_Depth_GT_0":0,"Median_of_Snow_Depth_GT_0_inches":0,"Probability_of_Snowfall_GT_0":0,"Median_of_Snowfall_GT_0_inches":0}},{"type":"Feature","geometry":{"type":"Point","coordinates":[-66.7222,18.1614]},"properties":{"GHCN_ID":"RQC00660053","Elev":"506","State":"PR","Name":"ADJUNTAS 1 S","Probability_of_Snow_Depth_GT_0":0,"Median_of_Snow_Depth_GT_0_inches":0,"Probability_of_Snowfall_GT_0":0,"Median_of_Snowfall_GT_0_inches":0}},{"type":"Feature","geometry":{"type":"Point","coordinates":[-66.7525,18.3494]},"properties":{"GHCN_ID":"RQC00660426","Elev":"323.1","State":"PR","Name":"ARECIBO OBSY","Probability_of_Snow_Depth_GT_0":0,"Median_of_Snow_Depth_GT_0_inches":0,"Probability_of_Snowfall_GT_0":0,"Median_of_Snowfall_GT_0_inches":0}},{"type":"Feature","geometry":{"type":"Point","coordinates":[-66.7667,18.45]},"properties":{"GHCN_ID":"RQC00664340","Elev":"64.9","State":"PR","Name":"HATO ARRIBA ARECIBO","Probability_of_Snow_Depth_GT_0":0,"Median_of_Snow_Depth_GT_0_inches":0,"Probability_of_Snowfall_GT_0":0,"Median_of_Snowfall_GT_0_inches":0}},{"type":"Feature","geometry":{"type":"Point","coordinates":[-66.7978,18.1747]},"properties":{"GHCN_ID":"RQC00660061","Elev":"557.8","State":"PR","Name":"ADJUNTAS SUBSTN","Probability_of_Snow_Depth_GT_0":0,"Median_of_Snow_Depth_GT_0_inches":0,"Probability_of_Snowfall_GT_0":0,"Median_of_Snowfall_GT_0_inches":0}},{"type":"Feature","geometry":{"type":"Point","coordinates":[-66.8161,17.9906]},"properties":{"GHCN_ID":"RQC00660948","Elev":"4.6","State":"PR","Name":"BOCA","Probability_of_Snow_Depth_GT_0":0,"Median_of_Snow_Depth_GT_0_inches":0,"Probability_of_Snowfall_GT_0":0,"Median_of_Snowfall_GT_0_inches":0}},{"type":"Feature","geometry":{"type":"Point","coordinates":[-66.8167,17.9833]},"properties":{"GHCN_ID":"RQC00662316","Elev":"9.1","State":"PR","Name":"CENTRAL SAN FRANCIS","Probability_of_Snow_Depth_GT_0":0,"Median_of_Snow_Depth_GT_0_inches":0,"Probability_of_Snowfall_GT_0":0,"Median_of_Snowfall_GT_0_inches":0}},{"type":"Feature","geometry":{"type":"Point","coordinates":[-66.8606,18.0436]},"properties":{"GHCN_ID":"RQC00669860","Elev":"53.9","State":"PR","Name":"YAUCO 1 NW","Probability_of_Snow_Depth_GT_0":0,"Median_of_Snow_Depth_GT_0_inches":0,"Probability_of_Snowfall_GT_0":0,"Median_of_Snowfall_GT_0_inches":0}},{"type":"Feature","geometry":{"type":"Point","coordinates":[-66.9244,18.3964]},"properties":{"GHCN_ID":"RQC00663904","Elev":"202.1","State":"PR","Name":"GUAJATACA DAM","Probability_of_Snow_Depth_GT_0":0,"Median_of_Snow_Depth_GT_0_inches":0,"Probability_of_Snowfall_GT_0":0,"Median_of_Snowfall_GT_0_inches":0}},{"type":"Feature","geometry":{"type":"Point","coordinates":[-66.9458,17.9728]},"properties":{"GHCN_ID":"RQC00663532","Elev":"45.7","State":"PR","Name":"ENSENADA 1 W","Probability_of_Snow_Depth_GT_0":0,"Median_of_Snow_Depth_GT_0_inches":0,"Probability_of_Snowfall_GT_0":0,"Median_of_Snowfall_GT_0_inches":0}},{"type":"Feature","geometry":{"type":"Point","coordinates":[-66.9919,44.9067]},"properties":{"GHCN_ID":"USC00172426","Elev":"25.9","State":"ME","Name":"EASTPORT","Probability_of_Snow_Depth_GT_0":0.48,"Median_of_Snow_Depth_GT_0_inches":"3","Probability_of_Snowfall_GT_0":0.23,"Median_of_Snowfall_GT_0_inches":"1.1"}},{"type":"Feature","geometry":{"type":"Point","coordinates":[-67.0289,18.4736]},"properties":{"GHCN_ID":"RQC00666361","Elev":"125","State":"PR","Name":"MORA CAMP","Probability_of_Snow_Depth_GT_0":0,"Median_of_Snow_Depth_GT_0_inches":0,"Probability_of_Snowfall_GT_0":0,"Median_of_Snowfall_GT_0_inches":0}},{"type":"Feature","geometry":{"type":"Point","coordinates":[-67.0525,18.4653]},"properties":{"GHCN_ID":"RQC00664702","Elev":"128","State":"PR","Name":"ISABELA SUBSTN","Probability_of_Snow_Depth_GT_0":0,"Median_of_Snow_Depth_GT_0_inches":0,"Probability_of_Snowfall_GT_0":0,"Median_of_Snowfall_GT_0_inches":0}},{"type":"Feature","geometry":{"type":"Point","coordinates":[-67.0722,18.0331]},"properties":{"GHCN_ID":"RQC00665097","Elev":"27.4","State":"PR","Name":"LAJAS SUBSTN","Probability_of_Snow_Depth_GT_0":0,"Median_of_Snow_Depth_GT_0_inches":0,"Probability_of_Snowfall_GT_0":0,"Median_of_Snowfall_GT_0_inches":0}},{"type":"Feature","geometry":{"type":"Point","coordinates":[-67.1156,18.4725]},"properties":{"GHCN_ID":"RQC00661345","Elev":"85","State":"PR","Name":"CALERO CAMP","Probability_of_Snow_Depth_GT_0":0,"Median_of_Snow_Depth_GT_0_inches":0,"Probability_of_Snowfall_GT_0":0,"Median_of_Snowfall_GT_0_inches":0}},{"type":"Feature","geometry":{"type":"Point","coordinates":[-67.1203,45.0853]},"properties":{"GHCN_ID":"USC00177238","Elev":"35.1","State":"ME","Name":"ROBBINSTON","Probability_of_Snow_Depth_GT_0":0.71,"Median_of_Snow_Depth_GT_0_inches":"6","Probability_of_Snowfall_GT_0":0.31,"Median_of_Snowfall_GT_0_inches":"1.1"}},{"type":"Feature","geometry":{"type":"Point","coordinates":[-67.1294,18.4981]},"properties":{"GHCN_ID":"RQW00011603","Elev":"66.4","State":"PR","Name":"BORINQUEN AP","Probability_of_Snow_Depth_GT_0":0,"Median_of_Snow_Depth_GT_0_inches":0,"Probability_of_Snowfall_GT_0":0,"Median_of_Snowfall_GT_0_inches":0}},{"type":"Feature","geometry":{"type":"Point","coordinates":[-67.1378,18.1875]},"properties":{"GHCN_ID":"RQC00666073","Elev":"22.6","State":"PR","Name":"MAYAGUEZ CITY","Probability_of_Snow_Depth_GT_0":0,"Median_of_Snow_Depth_GT_0_inches":0,"Probability_of_Snowfall_GT_0":0,"Median_of_Snowfall_GT_0_inches":0}},{"type":"Feature","geometry":{"type":"Point","coordinates":[-67.1486,18.2539]},"properties":{"GHCN_ID":"RQC00666083","Elev":"11.6","State":"PR","Name":"MAYAGUEZ AIRPORT","Probability_of_Snow_Depth_GT_0":0,"Median_of_Snow_Depth_GT_0_inches":0,"Probability_of_Snowfall_GT_0":0,"Median_of_Snowfall_GT_0_inches":0}},{"type":"Feature","geometry":{"type":"Point","coordinates":[-67.1569,18.3808]},"properties":{"GHCN_ID":"RQC00662801","Elev":"12.2","State":"PR","Name":"COLOSO","Probability_of_Snow_Depth_GT_0":0,"Median_of_Snow_Depth_GT_0_inches":0,"Probability_of_Snowfall_GT_0":0,"Median_of_Snowfall_GT_0_inches":0}},{"type":"Feature","geometry":{"type":"Point","coordinates":[-67.4303,45.5608]},"properties":{"GHCN_ID":"USC00178974","Elev":"128","State":"ME","Name":"VANCEBORO NO 2","Probability_of_Snow_Depth_GT_0":0.69,"Median_of_Snow_Depth_GT_0_inches":"6","Probability_of_Snowfall_GT_0":0.21,"Median_of_Snowfall_GT_0_inches":"2.1"}},{"type":"Feature","geometry":{"type":"Point","coordinates":[-67.4539,44.72]},"properties":{"GHCN_ID":"USC00174878","Elev":"6.1","State":"ME","Name":"MACHIAS","Probability_of_Snow_Depth_GT_0":0.48,"Median_of_Snow_Depth_GT_0_inches":"4","Probability_of_Snowfall_GT_0":0.22,"Median_of_Snowfall_GT_0_inches":"2"}},{"type":"Feature","geometry":{"type":"Point","coordinates":[-67.6475,44.6439]},"properties":{"GHCN_ID":"USC00174183","Elev":"56.4","State":"ME","Name":"JONESBORO","Probability_of_Snow_Depth_GT_0":0.53,"Median_of_Snow_Depth_GT_0_inches":"4","Probability_of_Snowfall_GT_0":0.16,"Median_of_Snowfall_GT_0_inches":"2"}},{"type":"Feature","geometry":{"type":"Point","coordinates":[-67.7928,46.1236]},"properties":{"GHCN_ID":"USW00014609","Elev":"145.1","State":"ME","Name":"HOULTON INTL AP","Probability_of_Snow_Depth_GT_0":0.8,"Median_of_Snow_Depth_GT_0_inches":"6","Probability_of_Snowfall_GT_0":0.31,"Median_of_Snowfall_GT_0_inches":"1.2"}},{"type":"Feature","geometry":{"type":"Point","coordinates":[-67.8417,46.2061]},"properties":{"GHCN_ID":"USC00173944","Elev":"118.9","State":"ME","Name":"HOULTON 5N","Probability_of_Snow_Depth_GT_0":0.83,"Median_of_Snow_Depth_GT_0_inches":"7","Probability_of_Snowfall_GT_0":0.34,"Median_of_Snowfall_GT_0_inches":"1"}},{"type":"Feature","geometry":{"type":"Point","coordinates":[-67.8442,46.4283]},"properties":{"GHCN_ID":"USC00170833","Elev":"128","State":"ME","Name":"BRIDGEWATER","Probability_of_Snow_Depth_GT_0":0.87,"Median_of_Snow_Depth_GT_0_inches":"8","Probability_of_Snowfall_GT_0":0.25,"Median_of_Snowfall_GT_0_inches":"1.8"}},{"type":"Feature","geometry":{"type":"Point","coordinates":[-67.8614,45.6611]},"properties":{"GHCN_ID":"USC00171833","Elev":"144.8","State":"ME","Name":"DANFORTH","Probability_of_Snow_Depth_GT_0":0.69,"Median_of_Snow_Depth_GT_0_inches":"6","Probability_of_Snowfall_GT_0":0.2,"Median_of_Snowfall_GT_0_inches":"1.7"}},{"type":"Feature","geometry":{"type":"Point","coordinates":[-67.9397,47.1664]},"properties":{"GHCN_ID":"USC00178965","Elev":"139","State":"ME","Name":"VAN BUREN 2","Probability_of_Snow_Depth_GT_0":0.86,"Median_of_Snow_Depth_GT_0_inches":"10","Probability_of_Snowfall_GT_0":0.23,"Median_of_Snowfall_GT_0_inches":"2"}},{"type":"Feature","geometry":{"type":"Point","coordinates":[-67.9442,18.0908]},"properties":{"GHCN_ID":"RQC00666258","Elev":"2.1","State":"PR","Name":"MONA ISLAND 2","Probability_of_Snow_Depth_GT_0":0,"Median_of_Snow_Depth_GT_0_inches":0,"Probability_of_Snowfall_GT_0":0,"Median_of_Snowfall_GT_0_inches":0}},{"type":"Feature","geometry":{"type":"Point","coordinates":[-68.0089,46.6539]},"properties":{"GHCN_ID":"USC00176937","Elev":"182.6","State":"ME","Name":"PRESQUE ISLE","Probability_of_Snow_Depth_GT_0":0.85,"Median_of_Snow_Depth_GT_0_inches":"9","Probability_of_Snowfall_GT_0":0.22,"Median_of_Snowfall_GT_0_inches":"2"}},{"type":"Feature","geometry":{"type":"Point","coordinates":[-68.0172,46.8706]},"properties":{"GHCN_ID":"USW00014607","Elev":"190.2","State":"ME","Name":"CARIBOU MUNI AP","Probability_of_Snow_Depth_GT_0":0.86,"Median_of_Snow_Depth_GT_0_inches":"8","Probability_of_Snowfall_GT_0":0.42,"Median_of_Snowfall_GT_0_inches":"0.9"}},{"type":"Feature","geometry":{"type":"Point","coordinates":[-68.1667,45.4]},"properties":{"GHCN_ID":"USC00178353","Elev":"134.1","State":"ME","Name":"SPRINGFIELD","Probability_of_Snow_Depth_GT_0":0.73,"Median_of_Snow_Depth_GT_0_inches":"8","Probability_of_Snowfall_GT_0":0.23,"Median_of_Snowfall_GT_0_inches":"2"}},{"type":"Feature","geometry":{"type":"Point","coordinates":[-68.2592,44.3739]},"properties":{"GHCN_ID":"USC00170100","Elev":"143.3","State":"ME","Name":"ACADIA NP","Probability_of_Snow_Depth_GT_0":0.51,"Median_of_Snow_Depth_GT_0_inches":"6","Probability_of_Snowfall_GT_0":0.16,"Median_of_Snowfall_GT_0_inches":"2"}},{"type":"Feature","geometry":{"type":"Point","coordinates":[-68.6136,47.2386]},"properties":{"GHCN_ID":"USC00172878","Elev":"185.9","State":"ME","Name":"FT KENT","Probability_of_Snow_Depth_GT_0":0.92,"Median_of_Snow_Depth_GT_0_inches":"9","Probability_of_Snowfall_GT_0":0.27,"Median_of_Snowfall_GT_0_inches":"1.1"}},{"type":"Feature","geometry":{"type":"Point","coordinates":[-68.8186,44.7978]},"properties":{"GHCN_ID":"USW00014606","Elev":"45.1","State":"ME","Name":"BANGOR INTL AP","Probability_of_Snow_Depth_GT_0":0.63,"Median_of_Snow_Depth_GT_0_inches":"4","Probability_of_Snowfall_GT_0":0.22,"Median_of_Snowfall_GT_0_inches":"1.5"}},{"type":"Feature","geometry":{"type":"Point","coordinates":[-69.025,47.0886]},"properties":{"GHCN_ID":"USC00170200","Elev":"181.7","State":"ME","Name":"ALLAGASH","Probability_of_Snow_Depth_GT_0":0.96,"Median_of_Snow_Depth_GT_0_inches":"10","Probability_of_Snowfall_GT_0":0.26,"Median_of_Snowfall_GT_0_inches":"1.9"}},{"type":"Feature","geometry":{"type":"Point","coordinates":[-69.1467,45.2883]},"properties":{"GHCN_ID":"USC00170398","Elev":"166.1","State":"ME","Name":"BARNARD","Probability_of_Snow_Depth_GT_0":0.82,"Median_of_Snow_Depth_GT_0_inches":"7","Probability_of_Snowfall_GT_0":0.26,"Median_of_Snowfall_GT_0_inches":"1.5"}},{"type":"Feature","geometry":{"type":"Point","coordinates":[-69.1839,45.1872]},"properties":{"GHCN_ID":"USC00171975","Elev":"112.8","State":"ME","Name":"DOVER-FOXCROFT WWTP","Probability_of_Snow_Depth_GT_0":0.85,"Median_of_Snow_Depth_GT_0_inches":"8","Probability_of_Snowfall_GT_0":0.26,"Median_of_Snowfall_GT_0_inches":"1.5"}},{"type":"Feature","geometry":{"type":"Point","coordinates":[-69.2278,45.2536]},"properties":{"GHCN_ID":"USC00177654","Elev":"115.8","State":"ME","Name":"SEBEC LAKE","Probability_of_Snow_Depth_GT_0":0.83,"Median_of_Snow_Depth_GT_0_inches":"7","Probability_of_Snowfall_GT_0":0.33,"Median_of_Snowfall_GT_0_inches":"1.2"}},{"type":"Feature","geometry":{"type":"Point","coordinates":[-69.2417,44.9197]},"properties":{"GHCN_ID":"USC00171628","Elev":"90.5","State":"ME","Name":"CORINNA","Probability_of_Snow_Depth_GT_0":0.76,"Median_of_Snow_Depth_GT_0_inches":"7","Probability_of_Snowfall_GT_0":0.2,"Median_of_Snowfall_GT_0_inches":"2"}},{"type":"Feature","geometry":{"type":"Point","coordinates":[-69.2622,43.9186]},"properties":{"GHCN_ID":"USC00176881","Elev":"9.1","State":"ME","Name":"PORT CLYDE","Probability_of_Snow_Depth_GT_0":0.38,"Median_of_Snow_Depth_GT_0_inches":"4","Probability_of_Snowfall_GT_0":0.15,"Median_of_Snowfall_GT_0_inches":"1.8"}},{"type":"Feature","geometry":{"type":"Point","coordinates":[-69.3817,45.1703]},"properties":{"GHCN_ID":"USC00173417","Elev":"121.9","State":"ME","Name":"GUILFORD","Probability_of_Snow_Depth_GT_0":0.82,"Median_of_Snow_Depth_GT_0_inches":"8","Probability_of_Snowfall_GT_0":0.24,"Median_of_Snowfall_GT_0_inches":"1.9"}},{"type":"Feature","geometry":{"type":"Point","coordinates":[-69.4836,44.4822]},"properties":{"GHCN_ID":"USC00170177","Elev":"97.5","State":"ME","Name":"ALBION","Probability_of_Snow_Depth_GT_0":0.75,"Median_of_Snow_Depth_GT_0_inches":"6","Probability_of_Snowfall_GT_0":0.31,"Median_of_Snowfall_GT_0_inches":"1.2"}},{"type":"Feature","geometry":{"type":"Point","coordinates":[-69.5367,44.0461]},"properties":{"GHCN_ID":"USC00175675","Elev":"57.9","State":"ME","Name":"NEWCASTLE","Probability_of_Snow_Depth_GT_0":0.61,"Median_of_Snow_Depth_GT_0_inches":"5","Probability_of_Snowfall_GT_0":0.27,"Median_of_Snowfall_GT_0_inches":"1"}},{"type":"Feature","geometry":{"type":"Point","coordinates":[-69.5458,44.9442]},"properties":{"GHCN_ID":"USC00173567","Elev":"97.5","State":"ME","Name":"HARMONY","Probability_of_Snow_Depth_GT_0":0.7,"Median_of_Snow_Depth_GT_0_inches":"7","Probability_of_Snowfall_GT_0":0.2,"Median_of_Snowfall_GT_0_inches":"2"}},{"type":"Feature","geometry":{"type":"Point","coordinates":[-69.6544,44.5272]},"properties":{"GHCN_ID":"USC00179151","Elev":"22.3","State":"ME","Name":"WATERVILLE TRTMT PL","Probability_of_Snow_Depth_GT_0":0.7,"Median_of_Snow_Depth_GT_0_inches":"5","Probability_of_Snowfall_GT_0":0.2,"Median_of_Snowfall_GT_0_inches":"2"}},{"type":"Feature","geometry":{"type":"Point","coordinates":[-69.7161,45.5869]},"properties":{"GHCN_ID":"USC00175460","Elev":"313.3","State":"ME","Name":"MOOSEHEAD","Probability_of_Snow_Depth_GT_0":0.9,"Median_of_Snow_Depth_GT_0_inches":"6","Probability_of_Snowfall_GT_0":0.36,"Median_of_Snowfall_GT_0_inches":"1"}},{"type":"Feature","geometry":{"type":"Point","coordinates":[-69.7889,44.2203]},"properties":{"GHCN_ID":"USC00173046","Elev":"42.7","State":"ME","Name":"GARDINER","Probability_of_Snow_Depth_GT_0":0.63,"Median_of_Snow_Depth_GT_0_inches":"5","Probability_of_Snowfall_GT_0":0.15,"Median_of_Snowfall_GT_0_inches":"2.8"}},{"type":"Feature","geometry":{"type":"Point","coordinates":[-69.7972,44.3206]},"properties":{"GHCN_ID":"USW00014605","Elev":"106.7","State":"ME","Name":"AUGUSTA STATE AP","Probability_of_Snow_Depth_GT_0":0.64,"Median_of_Snow_Depth_GT_0_inches":"5","Probability_of_Snowfall_GT_0":0.24,"Median_of_Snowfall_GT_0_inches":"1.3"}},{"type":"Feature","geometry":{"type":"Point","coordinates":[-69.812,45.6603]},"properties":{"GHCN_ID":"USC00170814","Elev":"323.1","State":"ME","Name":"BRASSUA DAM","Probability_of_Snow_Depth_GT_0":0.92,"Median_of_Snow_Depth_GT_0_inches":"8","Probability_of_Snowfall_GT_0":0.34,"Median_of_Snowfall_GT_0_inches":"1"}},{"type":"Feature","geometry":{"type":"Point","coordinates":[-69.8564,43.9317]},"properties":{"GHCN_ID":"USC00170409","Elev":"7.6","State":"ME","Name":"BATH","Probability_of_Snow_Depth_GT_0":0.55,"Median_of_Snow_Depth_GT_0_inches":"4","Probability_of_Snowfall_GT_0":0.22,"Median_of_Snowfall_GT_0_inches":"1.1"}},{"type":"Feature","geometry":{"type":"Point","coordinates":[-69.9333,43.9]},"properties":{"GHCN_ID":"USW00014611","Elev":"21.3","State":"ME","Name":"BRUNSWICK NAS","Probability_of_Snow_Depth_GT_0":0.46,"Median_of_Snow_Depth_GT_0_inches":"5","Probability_of_Snowfall_GT_0":0.18,"Median_of_Snowfall_GT_0_inches":"1.5"}},{"type":"Feature","geometry":{"type":"Point","coordinates":[-69.9589,41.6569]},"properties":{"GHCN_ID":"USC00191386","Elev":"12.2","State":"MA","Name":"CHATHAM","Probability_of_Snow_Depth_GT_0":0.14,"Median_of_Snow_Depth_GT_0_inches":"3","Probability_of_Snowfall_GT_0":0.08,"Median_of_Snowfall_GT_0_inches":0}},{"type":"Feature","geometry":{"type":"Point","coordinates":[-70.0003,44.6353]},"properties":{"GHCN_ID":"USC00175736","Elev":"146.3","State":"ME","Name":"NEW SHARON","Probability_of_Snow_Depth_GT_0":0.76,"Median_of_Snow_Depth_GT_0_inches":"6","Probability_of_Snowfall_GT_0":0.22,"Median_of_Snowfall_GT_0_inches":"2"}},{"type":"Feature","geometry":{"type":"Point","coordinates":[-70.055,43.9869]},"properties":{"GHCN_ID":"USC00172048","Elev":"44.2","State":"ME","Name":"DURHAM","Probability_of_Snow_Depth_GT_0":0.71,"Median_of_Snow_Depth_GT_0_inches":"6","Probability_of_Snowfall_GT_0":0.24,"Median_of_Snowfall_GT_0_inches":"1.5"}},{"type":"Feature","geometry":{"type":"Point","coordinates":[-70.1567,44.6889]},"properties":{"GHCN_ID":"USC00172765","Elev":"128","State":"ME","Name":"FARMINGTON","Probability_of_Snow_Depth_GT_0":0.75,"Median_of_Snow_Depth_GT_0_inches":"9","Probability_of_Snowfall_GT_0":0.22,"Median_of_Snowfall_GT_0_inches":"2"}},{"type":"Feature","geometry":{"type":"Point","coordinates":[-70.1711,44.9656]},"properties":{"GHCN_ID":"USC00174324","Elev":"192","State":"ME","Name":"KINGFIELD","Probability_of_Snow_Depth_GT_0":0.76,"Median_of_Snow_Depth_GT_0_inches":"5","Probability_of_Snowfall_GT_0":0.22,"Median_of_Snowfall_GT_0_inches":"1.7"}},{"type":"Feature","geometry":{"type":"Point","coordinates":[-70.1983,45.2219]},"properties":{"GHCN_ID":"USC00174781","Elev":"353.6","State":"ME","Name":"LONG FALLS DAM","Probability_of_Snow_Depth_GT_0":0.94,"Median_of_Snow_Depth_GT_0_inches":"9","Probability_of_Snowfall_GT_0":0.36,"Median_of_Snowfall_GT_0_inches":"1"}},{"type":"Feature","geometry":{"type":"Point","coordinates":[-70.2167,44.1]},"properties":{"GHCN_ID":"USC00174566","Elev":"54.9","State":"ME","Name":"LEWISTON","Probability_of_Snow_Depth_GT_0":0.6,"Median_of_Snow_Depth_GT_0_inches":"5","Probability_of_Snowfall_GT_0":0.2,"Median_of_Snowfall_GT_0_inches":"1.7"}},{"type":"Feature","geometry":{"type":"Point","coordinates":[-70.2544,43.8925]},"properties":{"GHCN_ID":"USC00173295","Elev":"115.2","State":"ME","Name":"GRAY","Probability_of_Snow_Depth_GT_0":0.67,"Median_of_Snow_Depth_GT_0_inches":"4","Probability_of_Snowfall_GT_0":0.27,"Median_of_Snowfall_GT_0_inches":"1.4"}},{"type":"Feature","geometry":{"type":"Point","coordinates":[-70.255,45.6233]},"properties":{"GHCN_ID":"USC00174086","Elev":"362.7","State":"ME","Name":"JACKMAN","Probability_of_Snow_Depth_GT_0":0.92,"Median_of_Snow_Depth_GT_0_inches":"9","Probability_of_Snowfall_GT_0":0.28,"Median_of_Snowfall_GT_0_inches":"1.9"}},{"type":"Feature","geometry":{"type":"Point","coordinates":[-70.3003,43.6497]},"properties":{"GHCN_ID":"USW00014764","Elev":"13.7","State":"ME","Name":"PORTLAND INTL JETPO","Probability_of_Snow_Depth_GT_0":0.48,"Median_of_Snow_Depth_GT_0_inches":"5","Probability_of_Snowfall_GT_0":0.22,"Median_of_Snowfall_GT_0_inches":"1.2"}},{"type":"Feature","geometry":{"type":"Point","coordinates":[-70.3039,41.665]},"properties":{"GHCN_ID":"USC00193821","Elev":"15.2","State":"MA","Name":"HYANNIS","Probability_of_Snow_Depth_GT_0":0.12,"Median_of_Snow_Depth_GT_0_inches":"2","Probability_of_Snowfall_GT_0":0.05,"Median_of_Snowfall_GT_0_inches":0}},{"type":"Feature","geometry":{"type":"Point","coordinates":[-70.35,44.8167]},"properties":{"GHCN_ID":"USC00176705","Elev":"182.9","State":"ME","Name":"PHILLIPS","Probability_of_Snow_Depth_GT_0":0.84,"Median_of_Snow_Depth_GT_0_inches":"11","Probability_of_Snowfall_GT_0":0.17,"Median_of_Snowfall_GT_0_inches":"2.4"}},{"type":"Feature","geometry":{"type":"Point","coordinates":[-70.3608,44.0069]},"properties":{"GHCN_ID":"USC00176856","Elev":"170.7","State":"ME","Name":"POLAND","Probability_of_Snow_Depth_GT_0":0.66,"Median_of_Snow_Depth_GT_0_inches":"5","Probability_of_Snowfall_GT_0":0.24,"Median_of_Snowfall_GT_0_inches":"1.4"}},{"type":"Feature","geometry":{"type":"Point","coordinates":[-70.4697,43.3606]},"properties":{"GHCN_ID":"USC00174193","Elev":"6.1","State":"ME","Name":"KENNEBUNKPORT","Probability_of_Snow_Depth_GT_0":0.45,"Median_of_Snow_Depth_GT_0_inches":"5","Probability_of_Snowfall_GT_0":0.15,"Median_of_Snowfall_GT_0_inches":"1.3"}},{"type":"Feature","geometry":{"type":"Point","coordinates":[-70.4825,45.2172]},"properties":{"GHCN_ID":"USC00172700","Elev":"384","State":"ME","Name":"EUSTIS","Probability_of_Snow_Depth_GT_0":0.97,"Median_of_Snow_Depth_GT_0_inches":"9","Probability_of_Snowfall_GT_0":0.35,"Median_of_Snowfall_GT_0_inches":"1.2"}},{"type":"Feature","geometry":{"type":"Point","coordinates":[-70.5181,41.3853]},"properties":{"GHCN_ID":"USC00192501","Elev":"9.1","State":"MA","Name":"EDGARTOWN","Probability_of_Snow_Depth_GT_0":0.15,"Median_of_Snow_Depth_GT_0_inches":"3","Probability_of_Snowfall_GT_0":0.07,"Median_of_Snowfall_GT_0_inches":0}},{"type":"Feature","geometry":{"type":"Point","coordinates":[-70.5372,44.5308]},"properties":{"GHCN_ID":"USC00177325","Elev":"192","State":"ME","Name":"RUMFORD 1 SSE","Probability_of_Snow_Depth_GT_0":0.83,"Median_of_Snow_Depth_GT_0_inches":"7","Probability_of_Snowfall_GT_0":0.2,"Median_of_Snowfall_GT_0_inches":"2"}},{"type":"Feature","geometry":{"type":"Point","coordinates":[-70.5833,44.3333]},"properties":{"GHCN_ID":"USC00179538","Elev":"164.6","State":"ME","Name":"WEST PARIS","Probability_of_Snow_Depth_GT_0":0.7,"Median_of_Snow_Depth_GT_0_inches":"7","Probability_of_Snowfall_GT_0":0.18,"Median_of_Snowfall_GT_0_inches":"2"}},{"type":"Feature","geometry":{"type":"Point","coordinates":[-70.6697,41.7653]},"properties":{"GHCN_ID":"USC00192451","Elev":"9.1","State":"MA","Name":"EAST WAREHAM","Probability_of_Snow_Depth_GT_0":0.21,"Median_of_Snow_Depth_GT_0_inches":"3","Probability_of_Snowfall_GT_0":0.11,"Median_of_Snowfall_GT_0_inches":"1.5"}},{"type":"Feature","geometry":{"type":"Point","coordinates":[-70.6719,44.9892]},"properties":{"GHCN_ID":"USC00177037","Elev":"466.3","State":"ME","Name":"RANGELEY","Probability_of_Snow_Depth_GT_0":0.93,"Median_of_Snow_Depth_GT_0_inches":"8","Probability_of_Snowfall_GT_0":0.46,"Median_of_Snowfall_GT_0_inches":"1"}},{"type":"Feature","geometry":{"type":"Point","coordinates":[-70.675,43.6478]},"properties":{"GHCN_ID":"USC00173862","Elev":"96","State":"ME","Name":"HOLLIS","Probability_of_Snow_Depth_GT_0":0.7,"Median_of_Snow_Depth_GT_0_inches":"7","Probability_of_Snowfall_GT_0":0.25,"Median_of_Snowfall_GT_0_inches":"1.2"}},{"type":"Feature","geometry":{"type":"Point","coordinates":[-70.6961,41.9819]},"properties":{"GHCN_ID":"USC00196486","Elev":"13.7","State":"MA","Name":"PLYMOUTH-KINGSTON","Probability_of_Snow_Depth_GT_0":0.22,"Median_of_Snow_Depth_GT_0_inches":"4","Probability_of_Snowfall_GT_0":0.1,"Median_of_Snowfall_GT_0_inches":0}},{"type":"Feature","geometry":{"type":"Point","coordinates":[-70.7539,43.8786]},"properties":{"GHCN_ID":"USC00172238","Elev":"160.9","State":"ME","Name":"EAST HIRAM","Probability_of_Snow_Depth_GT_0":0.76,"Median_of_Snow_Depth_GT_0_inches":"8","Probability_of_Snowfall_GT_0":0.22,"Median_of_Snowfall_GT_0_inches":"1.5"}},{"type":"Feature","geometry":{"type":"Point","coordinates":[-70.8333,43.0167]},"properties":{"GHCN_ID":"USC00273626","Elev":"25.9","State":"NH","Name":"GREENLAND","Probability_of_Snow_Depth_GT_0":0.47,"Median_of_Snow_Depth_GT_0_inches":"4","Probability_of_Snowfall_GT_0":0.18,"Median_of_Snowfall_GT_0_inches":"1.6"}},{"type":"Feature","geometry":{"type":"Point","coordinates":[-70.8644,42.5008]},"properties":{"GHCN_ID":"USC00194502","Elev":"25.6","State":"MA","Name":"MARBLEHEAD","Probability_of_Snow_Depth_GT_0":0.26,"Median_of_Snow_Depth_GT_0_inches":"4","Probability_of_Snowfall_GT_0":0.11,"Median_of_Snowfall_GT_0_inches":"2"}},{"type":"Feature","geometry":{"type":"Point","coordinates":[-70.8944,44.1569]},"properties":{"GHCN_ID":"USC00174817","Elev":"149.4","State":"ME","Name":"LOVELL","Probability_of_Snow_Depth_GT_0":0.78,"Median_of_Snow_Depth_GT_0_inches":"6","Probability_of_Snowfall_GT_0":0.18,"Median_of_Snowfall_GT_0_inches":"1.7"}},{"type":"Feature","geometry":{"type":"Point","coordinates":[-70.8997,42.8633]},"properties":{"GHCN_ID":"USC00195285","Elev":"25.9","State":"MA","Name":"NEWBURYPORT 4 NNW","Probability_of_Snow_Depth_GT_0":0.37,"Median_of_Snow_Depth_GT_0_inches":"5","Probability_of_Snowfall_GT_0":0.18,"Median_of_Snowfall_GT_0_inches":"1"}},{"type":"Feature","geometry":{"type":"Point","coordinates":[-70.9125,42.2269]},"properties":{"GHCN_ID":"USC00193624","Elev":"10.7","State":"MA","Name":"HINGHAM","Probability_of_Snow_Depth_GT_0":0.32,"Median_of_Snow_Depth_GT_0_inches":"3","Probability_of_Snowfall_GT_0":0.2,"Median_of_Snowfall_GT_0_inches":"0.7"}},{"type":"Feature","geometry":{"type":"Point","coordinates":[-70.9333,42.15]},"properties":{"GHCN_ID":"USW00014790","Elev":"47.9","State":"MA","Name":"SOUTH WEYMOUTH NAS","Probability_of_Snow_Depth_GT_0":0.23,"Median_of_Snow_Depth_GT_0_inches":"4","Probability_of_Snowfall_GT_0":0.15,"Median_of_Snowfall_GT_0_inches":"0.9"}},{"type":"Feature","geometry":{"type":"Point","coordinates":[-70.95,43.15]},"properties":{"GHCN_ID":"USC00272174","Elev":"24.4","State":"NH","Name":"DURHAM","Probability_of_Snow_Depth_GT_0":0.44,"Median_of_Snow_Depth_GT_0_inches":"5","Probability_of_Snowfall_GT_0":0.11,"Median_of_Snowfall_GT_0_inches":"2"}},{"type":"Feature","geometry":{"type":"Point","coordinates":[-70.9828,43.3003]},"properties":{"GHCN_ID":"USC00277253","Elev":"70.1","State":"NH","Name":"ROCHESTER","Probability_of_Snow_Depth_GT_0":0.5,"Median_of_Snow_Depth_GT_0_inches":"4","Probability_of_Snowfall_GT_0":0.18,"Median_of_Snowfall_GT_0_inches":"1.5"}},{"type":"Feature","geometry":{"type":"Point","coordinates":[-70.9833,42.5333]},"properties":{"GHCN_ID":"USC00196245","Elev":"51.8","State":"MA","Name":"PEABODY","Probability_of_Snow_Depth_GT_0":0.27,"Median_of_Snow_Depth_GT_0_inches":"3","Probability_of_Snowfall_GT_0":0.12,"Median_of_Snowfall_GT_0_inches":"1.5"}},{"type":"Feature","geometry":{"type":"Point","coordinates":[-71.0106,42.3606]},"properties":{"GHCN_ID":"USW00014739","Elev":"3.7","State":"MA","Name":"BOSTON LOGAN INTL A","Probability_of_Snow_Depth_GT_0":0.19,"Median_of_Snow_Depth_GT_0_inches":"3","Probability_of_Snowfall_GT_0":0.17,"Median_of_Snowfall_GT_0_inches":"0.8"}},{"type":"Feature","geometry":{"type":"Point","coordinates":[-71.0425,42.7467]},"properties":{"GHCN_ID":"USC00193276","Elev":"10.1","State":"MA","Name":"GROVELAND","Probability_of_Snow_Depth_GT_0":0.49,"Median_of_Snow_Depth_GT_0_inches":"6","Probability_of_Snowfall_GT_0":0.21,"Median_of_Snowfall_GT_0_inches":"1.4"}},{"type":"Feature","geometry":{"type":"Point","coordinates":[-71.0658,41.9003]},"properties":{"GHCN_ID":"USC00198367","Elev":"6.1","State":"MA","Name":"TAUNTON","Probability_of_Snow_Depth_GT_0":0.22,"Median_of_Snow_Depth_GT_0_inches":"4","Probability_of_Snowfall_GT_0":0.08,"Median_of_Snowfall_GT_0_inches":0}},{"type":"Feature","geometry":{"type":"Point","coordinates":[-71.1136,42.2122]},"properties":{"GHCN_ID":"USW00014753","Elev":"190.5","State":"MA","Name":"BLUE HILL","Probability_of_Snow_Depth_GT_0":0.39,"Median_of_Snow_Depth_GT_0_inches":"4","Probability_of_Snowfall_GT_0":0.22,"Median_of_Snowfall_GT_0_inches":"1"}},{"type":"Feature","geometry":{"type":"Point","coordinates":[-71.1264,42.5242]},"properties":{"GHCN_ID":"USC00196783","Elev":"27.4","State":"MA","Name":"READING","Probability_of_Snow_Depth_GT_0":0.43,"Median_of_Snow_Depth_GT_0_inches":"4","Probability_of_Snowfall_GT_0":0.21,"Median_of_Snowfall_GT_0_inches":"1"}},{"type":"Feature","geometry":{"type":"Point","coordinates":[-71.1383,44.0303]},"properties":{"GHCN_ID":"USC00275995","Elev":"165.8","State":"NH","Name":"NORTH CONWAY","Probability_of_Snow_Depth_GT_0":0.77,"Median_of_Snow_Depth_GT_0_inches":"7","Probability_of_Snowfall_GT_0":0.3,"Median_of_Snowfall_GT_0_inches":"1"}},{"type":"Feature","geometry":{"type":"Point","coordinates":[-71.1842,44.4486]},"properties":{"GHCN_ID":"USC00270690","Elev":"283.5","State":"NH","Name":"BERLIN","Probability_of_Snow_Depth_GT_0":0.82,"Median_of_Snow_Depth_GT_0_inches":"7","Probability_of_Snowfall_GT_0":0.23,"Median_of_Snowfall_GT_0_inches":"2"}},{"type":"Feature","geometry":{"type":"Point","coordinates":[-71.2461,42.1608]},"properties":{"GHCN_ID":"USC00198757","Elev":"50.3","State":"MA","Name":"WALPOLE 2","Probability_of_Snow_Depth_GT_0":0.42,"Median_of_Snow_Depth_GT_0_inches":"5","Probability_of_Snowfall_GT_0":0.19,"Median_of_Snowfall_GT_0_inches":"1"}},{"type":"Feature","geometry":{"type":"Point","coordinates":[-71.255,44.2633]},"properties":{"GHCN_ID":"USC00276818","Elev":"612.6","State":"NH","Name":"PINKHAM NOTCH","Probability_of_Snow_Depth_GT_0":0.91,"Median_of_Snow_Depth_GT_0_inches":"11","Probability_of_Snowfall_GT_0":0.33,"Median_of_Snowfall_GT_0_inches":"1.9"}},{"type":"Feature","geometry":{"type":"Point","coordinates":[-71.2833,42.4833]},"properties":{"GHCN_ID":"USC00190535","Elev":"48.8","State":"MA","Name":"BEDFORD","Probability_of_Snow_Depth_GT_0":0.43,"Median_of_Snow_Depth_GT_0_inches":"4","Probability_of_Snowfall_GT_0":0.21,"Median_of_Snowfall_GT_0_inches":"0.8"}},{"type":"Feature","geometry":{"type":"Point","coordinates":[-71.2872,45.0875]},"properties":{"GHCN_ID":"USC00272999","Elev":"506","State":"NH","Name":"FIRST CONNECTICUT L","Probability_of_Snow_Depth_GT_0":0.97,"Median_of_Snow_Depth_GT_0_inches":"10","Probability_of_Snowfall_GT_0":0.53,"Median_of_Snowfall_GT_0_inches":"1.3"}},{"type":"Feature","geometry":{"type":"Point","coordinates":[-71.2994,44.2667]},"properties":{"GHCN_ID":"USW00014755","Elev":"1910.2","State":"NH","Name":"MT WASHINGTON","Probability_of_Snow_Depth_GT_0":0.94,"Median_of_Snow_Depth_GT_0_inches":"5","Probability_of_Snowfall_GT_0":0.62,"Median_of_Snowfall_GT_0_inches":"1.6"}},{"type":"Feature","geometry":{"type":"Point","coordinates":[-71.3,43.9]},"properties":{"GHCN_ID":"USC00278612","Elev":"240.8","State":"NH","Name":"TAMWORTH 3","Probability_of_Snow_Depth_GT_0":0.81,"Median_of_Snow_Depth_GT_0_inches":"8","Probability_of_Snowfall_GT_0":0.28,"Median_of_Snowfall_GT_0_inches":"1"}},{"type":"Feature","geometry":{"type":"Point","coordinates":[-71.3439,42.2825]},"properties":{"GHCN_ID":"USC00195175","Elev":"54.9","State":"MA","Name":"NATICK","Probability_of_Snow_Depth_GT_0":0.41,"Median_of_Snow_Depth_GT_0_inches":"4","Probability_of_Snowfall_GT_0":0.13,"Median_of_Snowfall_GT_0_inches":"2"}},{"type":"Feature","geometry":{"type":"Point","coordinates":[-71.35,41.5]},"properties":{"GHCN_ID":"USC00375215","Elev":"4.6","State":"RI","Name":"NEWPORT ROSE","Probability_of_Snow_Depth_GT_0":0.09,"Median_of_Snow_Depth_GT_0_inches":0,"Probability_of_Snowfall_GT_0":0.06,"Median_of_Snowfall_GT_0_inches":0}},{"type":"Feature","geometry":{"type":"Point","coordinates":[-71.3636,42.6408]},"properties":{"GHCN_ID":"USC00194313","Elev":"33.5","State":"MA","Name":"LOWELL","Probability_of_Snow_Depth_GT_0":0.44,"Median_of_Snow_Depth_GT_0_inches":"4","Probability_of_Snowfall_GT_0":0.15,"Median_of_Snowfall_GT_0_inches":"1.6"}},{"type":"Feature","geometry":{"type":"Point","coordinates":[-71.4094,42.0792]},"properties":{"GHCN_ID":"USC00192997","Elev":"76.2","State":"MA","Name":"FRANKLIN","Probability_of_Snow_Depth_GT_0":0.41,"Median_of_Snow_Depth_GT_0_inches":"4","Probability_of_Snowfall_GT_0":0.11,"Median_of_Snowfall_GT_0_inches":"2.1"}},{"type":"Feature","geometry":{"type":"Point","coordinates":[-71.4147,42.7831]},"properties":{"GHCN_ID":"USC00274234","Elev":"56.4","State":"NH","Name":"HUDSON 1 SSE","Probability_of_Snow_Depth_GT_0":0.58,"Median_of_Snow_Depth_GT_0_inches":"4","Probability_of_Snowfall_GT_0":0.2,"Median_of_Snowfall_GT_0_inches":"1.2"}},{"type":"Feature","geometry":{"type":"Point","coordinates":[-71.4325,41.7219]},"properties":{"GHCN_ID":"USW00014765","Elev":"18.3","State":"RI","Name":"PROVIDENCE T F GREE","Probability_of_Snow_Depth_GT_0":0.22,"Median_of_Snow_Depth_GT_0_inches":"3","Probability_of_Snowfall_GT_0":0.15,"Median_of_Snowfall_GT_0_inches":"1.1"}},{"type":"Feature","geometry":{"type":"Point","coordinates":[-71.4333,42.1333]},"properties":{"GHCN_ID":"USC00199316","Elev":"64","State":"MA","Name":"WEST MEDWAY","Probability_of_Snow_Depth_GT_0":0.32,"Median_of_Snow_Depth_GT_0_inches":"4","Probability_of_Snowfall_GT_0":0.13,"Median_of_Snowfall_GT_0_inches":"1.2"}},{"type":"Feature","geometry":{"type":"Point","coordinates":[-71.4642,43.5492]},"properties":{"GHCN_ID":"USC00274480","Elev":"152.4","State":"NH","Name":"LAKEPORT 2","Probability_of_Snow_Depth_GT_0":0.59,"Median_of_Snow_Depth_GT_0_inches":"4","Probability_of_Snowfall_GT_0":0.17,"Median_of_Snowfall_GT_0_inches":"2"}},{"type":"Feature","geometry":{"type":"Point","coordinates":[-71.4664,43.7003]},"properties":{"GHCN_ID":"USC00275350","Elev":"253","State":"NH","Name":"MEREDITH 3 NNE","Probability_of_Snow_Depth_GT_0":0.75,"Median_of_Snow_Depth_GT_0_inches":"6","Probability_of_Snowfall_GT_0":0.22,"Median_of_Snowfall_GT_0_inches":"1.5"}},{"type":"Feature","geometry":{"type":"Point","coordinates":[-71.4833,43.7333]},"properties":{"GHCN_ID":"USC00275532","Elev":"182.9","State":"NH","Name":"MOULTONBORO 5 WSW","Probability_of_Snow_Depth_GT_0":0.78,"Median_of_Snow_Depth_GT_0_inches":"6","Probability_of_Snowfall_GT_0":0.31,"Median_of_Snowfall_GT_0_inches":"0.7"}},{"type":"Feature","geometry":{"type":"Point","coordinates":[-71.4908,41.9844]},"properties":{"GHCN_ID":"USC00379423","Elev":"33.5","State":"RI","Name":"WOONSOCKET","Probability_of_Snow_Depth_GT_0":0.39,"Median_of_Snow_Depth_GT_0_inches":"3","Probability_of_Snowfall_GT_0":0.12,"Median_of_Snowfall_GT_0_inches":"1.4"}},{"type":"Feature","geometry":{"type":"Point","coordinates":[-71.5008,44.4169]},"properties":{"GHCN_ID":"USC00274329","Elev":"376.4","State":"NH","Name":"JEFFERSON","Probability_of_Snow_Depth_GT_0":0.81,"Median_of_Snow_Depth_GT_0_inches":"6","Probability_of_Snowfall_GT_0":0.42,"Median_of_Snowfall_GT_0_inches":"0.9"}},{"type":"Feature","geometry":{"type":"Point","coordinates":[-71.5011,43.1953]},"properties":{"GHCN_ID":"USW00014745","Elev":"105.5","State":"NH","Name":"CONCORD MUNI AP","Probability_of_Snow_Depth_GT_0":0.59,"Median_of_Snow_Depth_GT_0_inches":"5","Probability_of_Snowfall_GT_0":0.23,"Median_of_Snowfall_GT_0_inches":"1.2"}},{"type":"Feature","geometry":{"type":"Point","coordinates":[-71.5356,44.9964]},"properties":{"GHCN_ID":"USC00431213","Elev":"326.1","State":"VT","Name":"CANAAN","Probability_of_Snow_Depth_GT_0":0.89,"Median_of_Snow_Depth_GT_0_inches":"7","Probability_of_Snowfall_GT_0":0.42,"Median_of_Snowfall_GT_0_inches":"1.2"}},{"type":"Feature","geometry":{"type":"Point","coordinates":[-71.54,44.8611]},"properties":{"GHCN_ID":"USC00271647","Elev":"341.4","State":"NH","Name":"COLEBROOK 3SW","Probability_of_Snow_Depth_GT_0":0.83,"Median_of_Snow_Depth_GT_0_inches":"6","Probability_of_Snowfall_GT_0":0.3,"Median_of_Snowfall_GT_0_inches":"1.8"}},{"type":"Feature","geometry":{"type":"Point","coordinates":[-71.5414,41.4906]},"properties":{"GHCN_ID":"USC00374266","Elev":"34.7","State":"RI","Name":"KINGSTON","Probability_of_Snow_Depth_GT_0":0.23,"Median_of_Snow_Depth_GT_0_inches":"3","Probability_of_Snowfall_GT_0":0.11,"Median_of_Snowfall_GT_0_inches":"1.6"}},{"type":"Feature","geometry":{"type":"Point","coordinates":[-71.5725,44.4911]},"properties":{"GHCN_ID":"USC00274556","Elev":"262.1","State":"NH","Name":"LANCASTER","Probability_of_Snow_Depth_GT_0":0.82,"Median_of_Snow_Depth_GT_0_inches":"6","Probability_of_Snowfall_GT_0":0.38,"Median_of_Snowfall_GT_0_inches":"1"}},{"type":"Feature","geometry":{"type":"Point","coordinates":[-71.6303,44.75]},"properties":{"GHCN_ID":"USC00276234","Elev":"277.4","State":"NH","Name":"NORTH STRATFORD","Probability_of_Snow_Depth_GT_0":0.87,"Median_of_Snow_Depth_GT_0_inches":"8","Probability_of_Snowfall_GT_0":0.38,"Median_of_Snowfall_GT_0_inches":"1"}},{"type":"Feature","geometry":{"type":"Point","coordinates":[-71.6486,42.8394]},"properties":{"GHCN_ID":"USC00275412","Elev":"97.5","State":"NH","Name":"MILFORD","Probability_of_Snow_Depth_GT_0":0.62,"Median_of_Snow_Depth_GT_0_inches":"5","Probability_of_Snowfall_GT_0":0.19,"Median_of_Snowfall_GT_0_inches":"1.4"}},{"type":"Feature","geometry":{"type":"Point","coordinates":[-71.65,43.7833]},"properties":{"GHCN_ID":"USC00276945","Elev":"201.2","State":"NH","Name":"PLYMOUTH","Probability_of_Snow_Depth_GT_0":0.7,"Median_of_Snow_Depth_GT_0_inches":"4","Probability_of_Snowfall_GT_0":0.23,"Median_of_Snowfall_GT_0_inches":"1.2"}},{"type":"Feature","geometry":{"type":"Point","coordinates":[-71.6575,44.3064]},"properties":{"GHCN_ID":"USC00270706","Elev":"359.7","State":"NH","Name":"BETHLEHEM 2","Probability_of_Snow_Depth_GT_0":0.83,"Median_of_Snow_Depth_GT_0_inches":"8","Probability_of_Snowfall_GT_0":0.39,"Median_of_Snowfall_GT_0_inches":"1.3"}},{"type":"Feature","geometry":{"type":"Point","coordinates":[-71.6758,42.115]},"properties":{"GHCN_ID":"USC00195524","Elev":"96","State":"MA","Name":"NORTHBRIDGE 2","Probability_of_Snow_Depth_GT_0":0.38,"Median_of_Snow_Depth_GT_0_inches":"4","Probability_of_Snowfall_GT_0":0.14,"Median_of_Snowfall_GT_0_inches":"1.9"}},{"type":"Feature","geometry":{"type":"Point","coordinates":[-71.7333,41.8564]},"properties":{"GHCN_ID":"USC00375270","Elev":"192","State":"RI","Name":"NORTH FOSTER 1 E","Probability_of_Snow_Depth_GT_0":0.45,"Median_of_Snow_Depth_GT_0_inches":"5","Probability_of_Snowfall_GT_0":0.2,"Median_of_Snowfall_GT_0_inches":"1.2"}},{"type":"Feature","geometry":{"type":"Point","coordinates":[-71.7383,43.0847]},"properties":{"GHCN_ID":"USC00278972","Elev":"219.5","State":"NH","Name":"WEARE","Probability_of_Snow_Depth_GT_0":0.69,"Median_of_Snow_Depth_GT_0_inches":"5","Probability_of_Snowfall_GT_0":0.18,"Median_of_Snowfall_GT_0_inches":"1.7"}},{"type":"Feature","geometry":{"type":"Point","coordinates":[-71.8678,43.0908]},"properties":{"GHCN_ID":"USC00271950","Elev":"325.2","State":"NH","Name":"DEERING","Probability_of_Snow_Depth_GT_0":0.72,"Median_of_Snow_Depth_GT_0_inches":"5","Probability_of_Snowfall_GT_0":0.2,"Median_of_Snowfall_GT_0_inches":"1.9"}},{"type":"Feature","geometry":{"type":"Point","coordinates":[-71.8731,42.2706]},"properties":{"GHCN_ID":"USW00094746","Elev":"304.8","State":"MA","Name":"WORCESTER RGNL AP","Probability_of_Snow_Depth_GT_0":0.43,"Median_of_Snow_Depth_GT_0_inches":"3","Probability_of_Snowfall_GT_0":0.25,"Median_of_Snowfall_GT_0_inches":"0.9"}},{"type":"Feature","geometry":{"type":"Point","coordinates":[-71.8903,44.8128]},"properties":{"GHCN_ID":"USC00434120","Elev":"365.8","State":"VT","Name":"ISLAND POND","Probability_of_Snow_Depth_GT_0":0.93,"Median_of_Snow_Depth_GT_0_inches":"8","Probability_of_Snowfall_GT_0":0.48,"Median_of_Snowfall_GT_0_inches":"1"}},{"type":"Feature","geometry":{"type":"Point","coordinates":[-71.8947,43.9847]},"properties":{"GHCN_ID":"USC00273415","Elev":"329.2","State":"NH","Name":"GLENCLIFF 2","Probability_of_Snow_Depth_GT_0":0.77,"Median_of_Snow_Depth_GT_0_inches":"5","Probability_of_Snowfall_GT_0":0.23,"Median_of_Snowfall_GT_0_inches":"1.8"}},{"type":"Feature","geometry":{"type":"Point","coordinates":[-71.9031,41.9442]},"properties":{"GHCN_ID":"USC00069388","Elev":"112.8","State":"CT","Name":"WEST THOMPSON LAKE","Probability_of_Snow_Depth_GT_0":0.35,"Median_of_Snow_Depth_GT_0_inches":"3","Probability_of_Snowfall_GT_0":0.11,"Median_of_Snowfall_GT_0_inches":"2"}},{"type":"Feature","geometry":{"type":"Point","coordinates":[-71.9156,43.9522]},"properties":{"GHCN_ID":"USC00279091","Elev":"189","State":"NH","Name":"WENTWORTH","Probability_of_Snow_Depth_GT_0":0.75,"Median_of_Snow_Depth_GT_0_inches":"4","Probability_of_Snowfall_GT_0":0.3,"Median_of_Snowfall_GT_0_inches":"1.2"}},{"type":"Feature","geometry":{"type":"Point","coordinates":[-71.9158,42.6178]},"properties":{"GHCN_ID":"USC00190190","Elev":"337.7","State":"MA","Name":"ASHBURNHAM","Probability_of_Snow_Depth_GT_0":0.65,"Median_of_Snow_Depth_GT_0_inches":"5","Probability_of_Snowfall_GT_0":0.26,"Median_of_Snowfall_GT_0_inches":"1.1"}},{"type":"Feature","geometry":{"type":"Point","coordinates":[-71.9486,44.0342]},"properties":{"GHCN_ID":"USC00270681","Elev":"365.8","State":"NH","Name":"BENTON 5 SW","Probability_of_Snow_Depth_GT_0":0.76,"Median_of_Snow_Depth_GT_0_inches":"4","Probability_of_Snowfall_GT_0":0.36,"Median_of_Snowfall_GT_0_inches":"0.8"}},{"type":"Feature","geometry":{"type":"Point","coordinates":[-71.98,43.2586]},"properties":{"GHCN_ID":"USC00270910","Elev":"286.5","State":"NH","Name":"BRADFORD","Probability_of_Snow_Depth_GT_0":0.72,"Median_of_Snow_Depth_GT_0_inches":"5","Probability_of_Snowfall_GT_0":0.2,"Median_of_Snowfall_GT_0_inches":"1.4"}},{"type":"Feature","geometry":{"type":"Point","coordinates":[-71.9833,44.6464]},"properties":{"GHCN_ID":"USC00439099","Elev":"274.3","State":"VT","Name":"WEST BURKE","Probability_of_Snow_Depth_GT_0":0.95,"Median_of_Snow_Depth_GT_0_inches":"9","Probability_of_Snowfall_GT_0":0.37,"Median_of_Snowfall_GT_0_inches":"1"}},{"type":"Feature","geometry":{"type":"Point","coordinates":[-72.0194,44.42]},"properties":{"GHCN_ID":"USW00054742","Elev":"213.4","State":"VT","Name":"SAINT JOHNSBURY","Probability_of_Snow_Depth_GT_0":0.83,"Median_of_Snow_Depth_GT_0_inches":"6","Probability_of_Snowfall_GT_0":0.44,"Median_of_Snowfall_GT_0_inches":"0.9"}},{"type":"Feature","geometry":{"type":"Point","coordinates":[-72.0275,42.4283]},"properties":{"GHCN_ID":"USC00190408","Elev":"253","State":"MA","Name":"BARRE FALLS DAM","Probability_of_Snow_Depth_GT_0":0.55,"Median_of_Snow_Depth_GT_0_inches":"4","Probability_of_Snowfall_GT_0":0.18,"Median_of_Snowfall_GT_0_inches":"1.8"}},{"type":"Feature","geometry":{"type":"Point","coordinates":[-72.0389,41.3511]},"properties":{"GHCN_ID":"USC00063207","Elev":"12.2","State":"CT","Name":"GROTON","Probability_of_Snow_Depth_GT_0":0.18,"Median_of_Snow_Depth_GT_0_inches":"2","Probability_of_Snowfall_GT_0":0.09,"Median_of_Snowfall_GT_0_inches":0}},{"type":"Feature","geometry":{"type":"Point","coordinates":[-72.0722,42.0583]},"properties":{"GHCN_ID":"USC00197627","Elev":"208.8","State":"MA","Name":"SOUTHBRIDGE 3 SW","Probability_of_Snow_Depth_GT_0":0.38,"Median_of_Snow_Depth_GT_0_inches":"4","Probability_of_Snowfall_GT_0":0.15,"Median_of_Snowfall_GT_0_inches":"2"}},{"type":"Feature","geometry":{"type":"Point","coordinates":[-72.0753,44.0503]},"properties":{"GHCN_ID":"USC00437646","Elev":"143.3","State":"VT","Name":"SOUTH NEWBURY","Probability_of_Snow_Depth_GT_0":0.69,"Median_of_Snow_Depth_GT_0_inches":"5","Probability_of_Snowfall_GT_0":0.2,"Median_of_Snowfall_GT_0_inches":"2"}},{"type":"Feature","geometry":{"type":"Point","coordinates":[-72.1233,42.6325]},"properties":{"GHCN_ID":"USC00190666","Elev":"263","State":"MA","Name":"BIRCH HILL DAM","Probability_of_Snow_Depth_GT_0":0.53,"Median_of_Snow_Depth_GT_0_inches":"4","Probability_of_Snowfall_GT_0":0.13,"Median_of_Snowfall_GT_0_inches":"1.9"}},{"type":"Feature","geometry":{"type":"Point","coordinates":[-72.1269,42.1103]},"properties":{"GHCN_ID":"USC00192107","Elev":"213.4","State":"MA","Name":"EAST BRIMFIELD LAKE","Probability_of_Snow_Depth_GT_0":0.49,"Median_of_Snow_Depth_GT_0_inches":"4","Probability_of_Snowfall_GT_0":0.18,"Median_of_Snowfall_GT_0_inches":"2"}},{"type":"Feature","geometry":{"type":"Point","coordinates":[-72.1753,43.3836]},"properties":{"GHCN_ID":"USC00275868","Elev":"240.8","State":"NH","Name":"NEWPORT","Probability_of_Snow_Depth_GT_0":0.72,"Median_of_Snow_Depth_GT_0_inches":"5","Probability_of_Snowfall_GT_0":0.22,"Median_of_Snowfall_GT_0_inches":"1.4"}},{"type":"Feature","geometry":{"type":"Point","coordinates":[-72.1858,41.7572]},"properties":{"GHCN_ID":"USC00064488","Elev":"76.2","State":"CT","Name":"MANSFIELD HOLLOW LA","Probability_of_Snow_Depth_GT_0":0.31,"Median_of_Snow_Depth_GT_0_inches":"3","Probability_of_Snowfall_GT_0":0.09,"Median_of_Snowfall_GT_0_inches":0}},{"type":"Feature","geometry":{"type":"Point","coordinates":[-72.1911,44.9489]},"properties":{"GHCN_ID":"USC00435542","Elev":"240.8","State":"VT","Name":"NEWPORT","Probability_of_Snow_Depth_GT_0":0.87,"Median_of_Snow_Depth_GT_0_inches":"7","Probability_of_Snowfall_GT_0":0.43,"Median_of_Snowfall_GT_0_inches":"0.9"}},{"type":"Feature","geometry":{"type":"Point","coordinates":[-72.2003,43.1175]},"properties":{"GHCN_ID":"USC00275150","Elev":"359.7","State":"NH","Name":"MARLOW","Probability_of_Snow_Depth_GT_0":0.73,"Median_of_Snow_Depth_GT_0_inches":"5","Probability_of_Snowfall_GT_0":0.22,"Median_of_Snowfall_GT_0_inches":"1.6"}},{"type":"Feature","geometry":{"type":"Point","coordinates":[-72.2244,42.64]},"properties":{"GHCN_ID":"USC00198573","Elev":"208.8","State":"MA","Name":"TULLY LAKE","Probability_of_Snow_Depth_GT_0":0.59,"Median_of_Snow_Depth_GT_0_inches":"5","Probability_of_Snowfall_GT_0":0.16,"Median_of_Snowfall_GT_0_inches":"2"}},{"type":"Feature","geometry":{"type":"Point","coordinates":[-72.2483,42.2622]},"properties":{"GHCN_ID":"USC00198793","Elev":"121.9","State":"MA","Name":"WARE","Probability_of_Snow_Depth_GT_0":0.5,"Median_of_Snow_Depth_GT_0_inches":"3","Probability_of_Snowfall_GT_0":0.14,"Median_of_Snowfall_GT_0_inches":"2"}},{"type":"Feature","geometry":{"type":"Point","coordinates":[-72.2578,43.7917]},"properties":{"GHCN_ID":"USC00438556","Elev":"140.2","State":"VT","Name":"UNION VILLAGE DAM","Probability_of_Snow_Depth_GT_0":0.77,"Median_of_Snow_Depth_GT_0_inches":"5","Probability_of_Snowfall_GT_0":0.2,"Median_of_Snowfall_GT_0_inches":"1.8"}},{"type":"Feature","geometry":{"type":"Point","coordinates":[-72.2847,43.7033]},"properties":{"GHCN_ID":"USC00273850","Elev":"183.8","State":"NH","Name":"HANOVER","Probability_of_Snow_Depth_GT_0":0.71,"Median_of_Snow_Depth_GT_0_inches":"5","Probability_of_Snowfall_GT_0":0.23,"Median_of_Snowfall_GT_0_inches":"1.1"}},{"type":"Feature","geometry":{"type":"Point","coordinates":[-72.3069,40.9461]},"properties":{"GHCN_ID":"USC00300889","Elev":"18.3","State":"NY","Name":"BRIDGEHAMPTON","Probability_of_Snow_Depth_GT_0":0.15,"Median_of_Snow_Depth_GT_0_inches":"2","Probability_of_Snowfall_GT_0":0.08,"Median_of_Snowfall_GT_0_inches":0}},{"type":"Feature","geometry":{"type":"Point","coordinates":[-72.3247,42.9389]},"properties":{"GHCN_ID":"USC00274399","Elev":"155.8","State":"NH","Name":"KEENE","Probability_of_Snow_Depth_GT_0":0.66,"Median_of_Snow_Depth_GT_0_inches":"4","Probability_of_Snowfall_GT_0":0.21,"Median_of_Snowfall_GT_0_inches":"1.1"}},{"type":"Feature","geometry":{"type":"Point","coordinates":[-72.4053,43.0739]},"properties":{"GHCN_ID":"USC00278858","Elev":"283.5","State":"NH","Name":"WALPOLE 3","Probability_of_Snow_Depth_GT_0":0.71,"Median_of_Snow_Depth_GT_0_inches":"5","Probability_of_Snowfall_GT_0":0.15,"Median_of_Snowfall_GT_0_inches":"2"}},{"type":"Feature","geometry":{"type":"Point","coordinates":[-72.45,43.9833]},"properties":{"GHCN_ID":"USC00431360","Elev":"243.8","State":"VT","Name":"CHELSEA","Probability_of_Snow_Depth_GT_0":0.84,"Median_of_Snow_Depth_GT_0_inches":"6","Probability_of_Snowfall_GT_0":0.27,"Median_of_Snowfall_GT_0_inches":"1.4"}},{"type":"Feature","geometry":{"type":"Point","coordinates":[-72.45,43.1333]},"properties":{"GHCN_ID":"USC00430499","Elev":"82.3","State":"VT","Name":"BELLOWS FALLS","Probability_of_Snow_Depth_GT_0":0.63,"Median_of_Snow_Depth_GT_0_inches":"4","Probability_of_Snowfall_GT_0":0.19,"Median_of_Snowfall_GT_0_inches":"1.5"}},{"type":"Feature","geometry":{"type":"Point","coordinates":[-72.5375,42.3861]},"properties":{"GHCN_ID":"USC00190120","Elev":"43.3","State":"MA","Name":"AMHERST","Probability_of_Snow_Depth_GT_0":0.45,"Median_of_Snow_Depth_GT_0_inches":"3","Probability_of_Snowfall_GT_0":0.13,"Median_of_Snowfall_GT_0_inches":"2"}},{"type":"Feature","geometry":{"type":"Point","coordinates":[-72.5528,42.4444]},"properties":{"GHCN_ID":"USC00198278","Elev":"68.6","State":"MA","Name":"SUNDERLAND","Probability_of_Snow_Depth_GT_0":0.5,"Median_of_Snow_Depth_GT_0_inches":"3","Probability_of_Snowfall_GT_0":0.18,"Median_of_Snowfall_GT_0_inches":"1"}},{"type":"Feature","geometry":{"type":"Point","coordinates":[-72.5794,44.2033]},"properties":{"GHCN_ID":"USW00094705","Elev":"343.2","State":"VT","Name":"BARRE MONTPELIER AP","Probability_of_Snow_Depth_GT_0":0.81,"Median_of_Snow_Depth_GT_0_inches":"5","Probability_of_Snowfall_GT_0":0.38,"Median_of_Snowfall_GT_0_inches":"1"}},{"type":"Feature","geometry":{"type":"Point","coordinates":[-72.5989,43.3847]},"properties":{"GHCN_ID":"USC00431243","Elev":"256.6","State":"VT","Name":"CAVENDISH","Probability_of_Snow_Depth_GT_0":0.85,"Median_of_Snow_Depth_GT_0_inches":"5","Probability_of_Snowfall_GT_0":0.28,"Median_of_Snowfall_GT_0_inches":"1"}},{"type":"Feature","geometry":{"type":"Point","coordinates":[-72.6344,43.8833]},"properties":{"GHCN_ID":"USC00430661","Elev":"201.2","State":"VT","Name":"BETHEL 4 N","Probability_of_Snow_Depth_GT_0":0.86,"Median_of_Snow_Depth_GT_0_inches":"6","Probability_of_Snowfall_GT_0":0.24,"Median_of_Snowfall_GT_0_inches":"1.1"}},{"type":"Feature","geometry":{"type":"Point","coordinates":[-72.6567,44.1647]},"properties":{"GHCN_ID":"USC00435733","Elev":"204.2","State":"VT","Name":"NORTHFIELD","Probability_of_Snow_Depth_GT_0":0.84,"Median_of_Snow_Depth_GT_0_inches":"6","Probability_of_Snowfall_GT_0":0.24,"Median_of_Snowfall_GT_0_inches":"1.9"}},{"type":"Feature","geometry":{"type":"Point","coordinates":[-72.6825,41.9381]},"properties":{"GHCN_ID":"USW00014740","Elev":"57.9","State":"CT","Name":"HARTFORD BRADLEY IN","Probability_of_Snow_Depth_GT_0":0.28,"Median_of_Snow_Depth_GT_0_inches":"2","Probability_of_Snowfall_GT_0":0.17,"Median_of_Snowfall_GT_0_inches":"0.9"}},{"type":"Feature","geometry":{"type":"Point","coordinates":[-72.7,42.6667]},"properties":{"GHCN_ID":"USC00191611","Elev":"190.5","State":"MA","Name":"COLRAIN","Probability_of_Snow_Depth_GT_0":0.78,"Median_of_Snow_Depth_GT_0_inches":"4","Probability_of_Snowfall_GT_0":0.17,"Median_of_Snowfall_GT_0_inches":"1.8"}},{"type":"Feature","geometry":{"type":"Point","coordinates":[-72.7103,43.3939]},"properties":{"GHCN_ID":"USC00434747","Elev":"385.6","State":"VT","Name":"LUDLOW","Probability_of_Snow_Depth_GT_0":0.85,"Median_of_Snow_Depth_GT_0_inches":"6","Probability_of_Snowfall_GT_0":0.28,"Median_of_Snowfall_GT_0_inches":"1"}},{"type":"Feature","geometry":{"type":"Point","coordinates":[-72.7158,40.9619]},"properties":{"GHCN_ID":"USC00307134","Elev":"30.5","State":"NY","Name":"RIVERHEAD RSCH FM","Probability_of_Snow_Depth_GT_0":0.16,"Median_of_Snow_Depth_GT_0_inches":"3","Probability_of_Snowfall_GT_0":0.08,"Median_of_Snowfall_GT_0_inches":0}},{"type":"Feature","geometry":{"type":"Point","coordinates":[-72.7167,41.55]},"properties":{"GHCN_ID":"USC00064767","Elev":"112.5","State":"CT","Name":"MIDDLETOWN 4 W","Probability_of_Snow_Depth_GT_0":0.27,"Median_of_Snow_Depth_GT_0_inches":"5","Probability_of_Snowfall_GT_0":0.12,"Median_of_Snowfall_GT_0_inches":"1.5"}},{"type":"Feature","geometry":{"type":"Point","coordinates":[-72.75,44.3167]},"properties":{"GHCN_ID":"USC00438815","Elev":"231.6","State":"VT","Name":"WATERBURY 2 SSE","Probability_of_Snow_Depth_GT_0":0.91,"Median_of_Snow_Depth_GT_0_inches":"8","Probability_of_Snowfall_GT_0":0.5,"Median_of_Snowfall_GT_0_inches":"0.8"}},{"type":"Feature","geometry":{"type":"Point","coordinates":[-72.8045,43.8578]},"properties":{"GHCN_ID":"USC00436893","Elev":"253","State":"VT","Name":"ROCHESTER","Probability_of_Snow_Depth_GT_0":0.74,"Median_of_Snow_Depth_GT_0_inches":"5","Probability_of_Snowfall_GT_0":0.21,"Median_of_Snowfall_GT_0_inches":"1.6"}},{"type":"Feature","geometry":{"type":"Point","coordinates":[-72.8083,44.9094]},"properties":{"GHCN_ID":"USC00432769","Elev":"128","State":"VT","Name":"ENOSBURG FALLS","Probability_of_Snow_Depth_GT_0":0.74,"Median_of_Snow_Depth_GT_0_inches":"5","Probability_of_Snowfall_GT_0":0.33,"Median_of_Snowfall_GT_0_inches":"1.2"}},{"type":"Feature","geometry":{"type":"Point","coordinates":[-72.8153,44.5247]},"properties":{"GHCN_ID":"USC00435416","Elev":"1204","State":"VT","Name":"MT MANSFIELD","Probability_of_Snow_Depth_GT_0":0.99,"Median_of_Snow_Depth_GT_0_inches":"28","Probability_of_Snowfall_GT_0":0.55,"Median_of_Snowfall_GT_0_inches":"1.8"}},{"type":"Feature","geometry":{"type":"Point","coordinates":[-72.85,43.0331]},"properties":{"GHCN_ID":"USC00439591","Elev":"429.8","State":"VT","Name":"WEST WARDSBORO","Probability_of_Snow_Depth_GT_0":0.83,"Median_of_Snow_Depth_GT_0_inches":"7","Probability_of_Snowfall_GT_0":0.36,"Median_of_Snowfall_GT_0_inches":"1.4"}},{"type":"Feature","geometry":{"type":"Point","coordinates":[-72.8508,42.5133]},"properties":{"GHCN_ID":"USC00190213","Elev":"408.4","State":"MA","Name":"ASHFIELD","Probability_of_Snow_Depth_GT_0":0.74,"Median_of_Snow_Depth_GT_0_inches":"6","Probability_of_Snowfall_GT_0":0.22,"Median_of_Snowfall_GT_0_inches":"1.3"}},{"type":"Feature","geometry":{"type":"Point","coordinates":[-72.8781,44.1872]},"properties":{"GHCN_ID":"USC00438637","Elev":"313.3","State":"VT","Name":"WAITSFIELD 2 W","Probability_of_Snow_Depth_GT_0":0.84,"Median_of_Snow_Depth_GT_0_inches":"5","Probability_of_Snowfall_GT_0":0.34,"Median_of_Snowfall_GT_0_inches":"1.2"}},{"type":"Feature","geometry":{"type":"Point","coordinates":[-72.9033,41.4075]},"properties":{"GHCN_ID":"USC00065077","Elev":"54.9","State":"CT","Name":"MT CARMEL","Probability_of_Snow_Depth_GT_0":0.29,"Median_of_Snow_Depth_GT_0_inches":"3","Probability_of_Snowfall_GT_0":0.11,"Median_of_Snowfall_GT_0_inches":"1"}},{"type":"Feature","geometry":{"type":"Point","coordinates":[-72.9211,42.3869]},"properties":{"GHCN_ID":"USC00199972","Elev":"391.7","State":"MA","Name":"WORTHINGTON","Probability_of_Snow_Depth_GT_0":0.7,"Median_of_Snow_Depth_GT_0_inches":"5","Probability_of_Snowfall_GT_0":0.37,"Median_of_Snowfall_GT_0_inches":"0.5"}},{"type":"Feature","geometry":{"type":"Point","coordinates":[-72.9617,43.7064]},"properties":{"GHCN_ID":"USC00431433","Elev":"354.5","State":"VT","Name":"CHITTENDEN","Probability_of_Snow_Depth_GT_0":0.75,"Median_of_Snow_Depth_GT_0_inches":"5","Probability_of_Snowfall_GT_0":0.27,"Median_of_Snowfall_GT_0_inches":"1.5"}},{"type":"Feature","geometry":{"type":"Point","coordinates":[-72.9644,41.9211]},"properties":{"GHCN_ID":"USC00060299","Elev":"214.9","State":"CT","Name":"BARKHAMSTED","Probability_of_Snow_Depth_GT_0":0.44,"Median_of_Snow_Depth_GT_0_inches":"5","Probability_of_Snowfall_GT_0":0.11,"Median_of_Snowfall_GT_0_inches":"2"}},{"type":"Feature","geometry":{"type":"Point","coordinates":[-72.9736,44.0725]},"properties":{"GHCN_ID":"USC00437612","Elev":"408.7","State":"VT","Name":"SOUTH LINCOLN","Probability_of_Snow_Depth_GT_0":0.82,"Median_of_Snow_Depth_GT_0_inches":"5","Probability_of_Snowfall_GT_0":0.4,"Median_of_Snowfall_GT_0_inches":"1.3"}},{"type":"Feature","geometry":{"type":"Point","coordinates":[-72.9781,43.6253]},"properties":{"GHCN_ID":"USC00436995","Elev":"189","State":"VT","Name":"RUTLAND","Probability_of_Snow_Depth_GT_0":0.69,"Median_of_Snow_Depth_GT_0_inches":"4","Probability_of_Snowfall_GT_0":0.26,"Median_of_Snowfall_GT_0_inches":"1.1"}},{"type":"Feature","geometry":{"type":"Point","coordinates":[-73.0014,40.7967]},"properties":{"GHCN_ID":"USC00306441","Elev":"16.8","State":"NY","Name":"PATCHOGUE 2 N","Probability_of_Snow_Depth_GT_0":0.17,"Median_of_Snow_Depth_GT_0_inches":"3","Probability_of_Snowfall_GT_0":0.09,"Median_of_Snowfall_GT_0_inches":0}},{"type":"Feature","geometry":{"type":"Point","coordinates":[-73.0086,41.8417]},"properties":{"GHCN_ID":"USC00060227","Elev":"209.1","State":"CT","Name":"BAKERSVILLE","Probability_of_Snow_Depth_GT_0":0.57,"Median_of_Snow_Depth_GT_0_inches":"5","Probability_of_Snowfall_GT_0":0.23,"Median_of_Snowfall_GT_0_inches":"0.9"}},{"type":"Feature","geometry":{"type":"Point","coordinates":[-73.0911,44.8592]},"properties":{"GHCN_ID":"USC00437032","Elev":"115.8","State":"VT","Name":"ST ALBANS RADIO","Probability_of_Snow_Depth_GT_0":0.62,"Median_of_Snow_Depth_GT_0_inches":"5","Probability_of_Snowfall_GT_0":0.32,"Median_of_Snowfall_GT_0_inches":"1"}},{"type":"Feature","geometry":{"type":"Point","coordinates":[-73.0992,43.9256]},"properties":{"GHCN_ID":"USC00437098","Elev":"128","State":"VT","Name":"SALISBURY 2 N","Probability_of_Snow_Depth_GT_0":0.63,"Median_of_Snow_Depth_GT_0_inches":"5","Probability_of_Snowfall_GT_0":0.21,"Median_of_Snowfall_GT_0_inches":"1.8"}},{"type":"Feature","geometry":{"type":"Point","coordinates":[-73.1017,40.7939]},"properties":{"GHCN_ID":"USW00004781","Elev":"25.6","State":"NY","Name":"ISLIP LI MACARTHUR","Probability_of_Snow_Depth_GT_0":0.14,"Median_of_Snow_Depth_GT_0_inches":"3","Probability_of_Snowfall_GT_0":0.09,"Median_of_Snowfall_GT_0_inches":0}},{"type":"Feature","geometry":{"type":"Point","coordinates":[-73.1153,44.5078]},"properties":{"GHCN_ID":"USC00432843","Elev":"103.6","State":"VT","Name":"ESSEX JUNCTION 1 N","Probability_of_Snow_Depth_GT_0":0.71,"Median_of_Snow_Depth_GT_0_inches":"5","Probability_of_Snowfall_GT_0":0.35,"Median_of_Snowfall_GT_0_inches":"1"}},{"type":"Feature","geometry":{"type":"Point","coordinates":[-73.1244,43.0908]},"properties":{"GHCN_ID":"USC00438160","Elev":"274.3","State":"VT","Name":"SUNDERLAND 2","Probability_of_Snow_Depth_GT_0":0.59,"Median_of_Snow_Depth_GT_0_inches":"4","Probability_of_Snowfall_GT_0":0.31,"Median_of_Snowfall_GT_0_inches":"1.2"}},{"type":"Feature","geometry":{"type":"Point","coordinates":[-73.1289,41.1583]},"properties":{"GHCN_ID":"USW00094702","Elev":"1.5","State":"CT","Name":"BRIDGEPORT SIKORSKY","Probability_of_Snow_Depth_GT_0":0.21,"Median_of_Snow_Depth_GT_0_inches":"2","Probability_of_Snowfall_GT_0":0.12,"Median_of_Snowfall_GT_0_inches":"0.9"}},{"type":"Feature","geometry":{"type":"Point","coordinates":[-73.15,44.4683]},"properties":{"GHCN_ID":"USW00014742","Elev":"100.6","State":"VT","Name":"BURLINGTON INTL AP","Probability_of_Snow_Depth_GT_0":0.64,"Median_of_Snow_Depth_GT_0_inches":"4","Probability_of_Snowfall_GT_0":0.41,"Median_of_Snowfall_GT_0_inches":"0.8"}},{"type":"Feature","geometry":{"type":"Point","coordinates":[-73.2208,41.9725]},"properties":{"GHCN_ID":"USC00065445","Elev":"408.4","State":"CT","Name":"NORFOLK 2 SW","Probability_of_Snow_Depth_GT_0":0.72,"Median_of_Snow_Depth_GT_0_inches":"5","Probability_of_Snowfall_GT_0":0.3,"Median_of_Snowfall_GT_0_inches":"1"}},{"type":"Feature","geometry":{"type":"Point","coordinates":[-73.2228,42.7917]},"properties":{"GHCN_ID":"USC00436500","Elev":"338.3","State":"VT","Name":"POWNAL 1 NE","Probability_of_Snow_Depth_GT_0":0.59,"Median_of_Snow_Depth_GT_0_inches":"4","Probability_of_Snowfall_GT_0":0.18,"Median_of_Snowfall_GT_0_inches":"2"}},{"type":"Feature","geometry":{"type":"Point","coordinates":[-73.2297,41.5536]},"properties":{"GHCN_ID":"USC00069775","Elev":"198.1","State":"CT","Name":"WOODBURY","Probability_of_Snow_Depth_GT_0":0.35,"Median_of_Snow_Depth_GT_0_inches":"3","Probability_of_Snowfall_GT_0":0.19,"Median_of_Snowfall_GT_0_inches":"1"}},{"type":"Feature","geometry":{"type":"Point","coordinates":[-73.2333,42.55]},"properties":{"GHCN_ID":"USC00194075","Elev":"376.7","State":"MA","Name":"LANESBORO","Probability_of_Snow_Depth_GT_0":0.7,"Median_of_Snow_Depth_GT_0_inches":"4","Probability_of_Snowfall_GT_0":0.21,"Median_of_Snowfall_GT_0_inches":"1.7"}},{"type":"Feature","geometry":{"type":"Point","coordinates":[-73.3031,44.6264]},"properties":{"GHCN_ID":"USC00437607","Elev":"33.5","State":"VT","Name":"SOUTH HERO","Probability_of_Snow_Depth_GT_0":0.59,"Median_of_Snow_Depth_GT_0_inches":"4","Probability_of_Snowfall_GT_0":0.25,"Median_of_Snowfall_GT_0_inches":"0.8"}},{"type":"Feature","geometry":{"type":"Point","coordinates":[-73.4167,41.4]},"properties":{"GHCN_ID":"USC00061762","Elev":"123.4","State":"CT","Name":"DANBURY","Probability_of_Snow_Depth_GT_0":0.35,"Median_of_Snow_Depth_GT_0_inches":"3","Probability_of_Snowfall_GT_0":0.18,"Median_of_Snowfall_GT_0_inches":"1"}},{"type":"Feature","geometry":{"type":"Point","coordinates":[-73.4319,43.1014]},"properties":{"GHCN_ID":"USC00300452","Elev":"115.8","State":"NY","Name":"BATTENVILLE","Probability_of_Snow_Depth_GT_0":0.57,"Median_of_Snow_Depth_GT_0_inches":"4","Probability_of_Snowfall_GT_0":0.17,"Median_of_Snowfall_GT_0_inches":"1.8"}},{"type":"Feature","geometry":{"type":"Point","coordinates":[-73.4667,42.7833]},"properties":{"GHCN_ID":"USC00303360","Elev":"475.5","State":"NY","Name":"GRAFTON","Probability_of_Snow_Depth_GT_0":0.67,"Median_of_Snow_Depth_GT_0_inches":"5","Probability_of_Snowfall_GT_0":0.24,"Median_of_Snowfall_GT_0_inches":"1.6"}},{"type":"Feature","geometry":{"type":"Point","coordinates":[-73.6,42.6167]},"properties":{"GHCN_ID":"USC00309303","Elev":"195.1","State":"NY","Name":"WEST SAND LAKE 2 S","Probability_of_Snow_Depth_GT_0":0.49,"Median_of_Snow_Depth_GT_0_inches":"4","Probability_of_Snowfall_GT_0":0.18,"Median_of_Snowfall_GT_0_inches":"1.6"}},{"type":"Feature","geometry":{"type":"Point","coordinates":[-73.6167,43.35]},"properties":{"GHCN_ID":"USW00014750","Elev":"97.8","State":"NY","Name":"GLENS FALLS AP","Probability_of_Snow_Depth_GT_0":0.56,"Median_of_Snow_Depth_GT_0_inches":"4","Probability_of_Snowfall_GT_0":0.24,"Median_of_Snowfall_GT_0_inches":"0.9"}},{"type":"Feature","geometry":{"type":"Point","coordinates":[-73.6183,40.7328]},"properties":{"GHCN_ID":"USC00305377","Elev":"29.3","State":"NY","Name":"MINEOLA","Probability_of_Snow_Depth_GT_0":0.13,"Median_of_Snow_Depth_GT_0_inches":"3","Probability_of_Snowfall_GT_0":0.05,"Median_of_Snowfall_GT_0_inches":0}},{"type":"Feature","geometry":{"type":"Point","coordinates":[-73.6833,42.4333]},"properties":{"GHCN_ID":"USC00308746","Elev":"91.4","State":"NY","Name":"VALATIE 1 N","Probability_of_Snow_Depth_GT_0":0.47,"Median_of_Snow_Depth_GT_0_inches":"4","Probability_of_Snowfall_GT_0":0.11,"Median_of_Snowfall_GT_0_inches":"2.4"}},{"type":"Feature","geometry":{"type":"Point","coordinates":[-73.6833,42.75]},"properties":{"GHCN_ID":"USC00308600","Elev":"7.3","State":"NY","Name":"TROY L&D","Probability_of_Snow_Depth_GT_0":0.45,"Median_of_Snow_Depth_GT_0_inches":"3","Probability_of_Snowfall_GT_0":0.14,"Median_of_Snowfall_GT_0_inches":"1.8"}},{"type":"Feature","geometry":{"type":"Point","coordinates":[-73.7333,43.3333]},"properties":{"GHCN_ID":"USC00303284","Elev":"153.6","State":"NY","Name":"GLENS FALLS FARM","Probability_of_Snow_Depth_GT_0":0.63,"Median_of_Snow_Depth_GT_0_inches":"4","Probability_of_Snowfall_GT_0":0.16,"Median_of_Snowfall_GT_0_inches":"1.9"}},{"type":"Feature","geometry":{"type":"Point","coordinates":[-73.7333,41.5333]},"properties":{"GHCN_ID":"USC00308304","Elev":"278.9","State":"NY","Name":"STORMVILLE","Probability_of_Snow_Depth_GT_0":0.41,"Median_of_Snow_Depth_GT_0_inches":"4","Probability_of_Snowfall_GT_0":0.2,"Median_of_Snowfall_GT_0_inches":"1"}},{"type":"Feature","geometry":{"type":"Point","coordinates":[-73.7622,40.6386]},"properties":{"GHCN_ID":"USW00094789","Elev":"3.4","State":"NY","Name":"NEW YORK JFK INTL A","Probability_of_Snow_Depth_GT_0":0.12,"Median_of_Snow_Depth_GT_0_inches":"3","Probability_of_Snowfall_GT_0":0.11,"Median_of_Snowfall_GT_0_inches":"0.6"}},{"type":"Feature","geometry":{"type":"Point","coordinates":[-73.7975,41.2664]},"properties":{"GHCN_ID":"USC00309670","Elev":"204.2","State":"NY","Name":"YORKTOWN HEIGHTS 1W","Probability_of_Snow_Depth_GT_0":0.4,"Median_of_Snow_Depth_GT_0_inches":"3","Probability_of_Snowfall_GT_0":0.13,"Median_of_Snowfall_GT_0_inches":"1"}},{"type":"Feature","geometry":{"type":"Point","coordinates":[-73.8,42.25]},"properties":{"GHCN_ID":"USC00304025","Elev":"18.3","State":"NY","Name":"HUDSON COR.FACILITY","Probability_of_Snow_Depth_GT_0":0.34,"Median_of_Snow_Depth_GT_0_inches":"4","Probability_of_Snowfall_GT_0":0.08,"Median_of_Snowfall_GT_0_inches":0}},{"type":"Feature","geometry":{"type":"Point","coordinates":[-73.8092,42.7431]},"properties":{"GHCN_ID":"USW00014735","Elev":"95.1","State":"NY","Name":"ALBANY AP","Probability_of_Snow_Depth_GT_0":0.45,"Median_of_Snow_Depth_GT_0_inches":"3","Probability_of_Snowfall_GT_0":0.26,"Median_of_Snowfall_GT_0_inches":"0.8"}},{"type":"Feature","geometry":{"type":"Point","coordinates":[-73.8167,43.0333]},"properties":{"GHCN_ID":"USC00307484","Elev":"94.5","State":"NY","Name":"SARATOGA SPRINGS 4","Probability_of_Snow_Depth_GT_0":0.65,"Median_of_Snow_Depth_GT_0_inches":"5","Probability_of_Snowfall_GT_0":0.2,"Median_of_Snowfall_GT_0_inches":"1.5"}},{"type":"Feature","geometry":{"type":"Point","coordinates":[-73.8222,44.9131]},"properties":{"GHCN_ID":"USC00302574","Elev":"289.6","State":"NY","Name":"ELLENBURG DEPOT","Probability_of_Snow_Depth_GT_0":0.79,"Median_of_Snow_Depth_GT_0_inches":"5","Probability_of_Snowfall_GT_0":0.3,"Median_of_Snowfall_GT_0_inches":"1"}},{"type":"Feature","geometry":{"type":"Point","coordinates":[-73.8308,42.6925]},"properties":{"GHCN_ID":"USC00300048","Elev":"89.3","State":"NY","Name":"ALBANY NWFO UNIV","Probability_of_Snow_Depth_GT_0":0.48,"Median_of_Snow_Depth_GT_0_inches":"4","Probability_of_Snowfall_GT_0":0.27,"Median_of_Snowfall_GT_0_inches":"0.8"}},{"type":"Feature","geometry":{"type":"Point","coordinates":[-73.8344,41.0072]},"properties":{"GHCN_ID":"USC00302129","Elev":"61","State":"NY","Name":"DOBBS FERRY ARDSLEY","Probability_of_Snow_Depth_GT_0":0.26,"Median_of_Snow_Depth_GT_0_inches":"2","Probability_of_Snowfall_GT_0":0.12,"Median_of_Snowfall_GT_0_inches":"1.1"}},{"type":"Feature","geometry":{"type":"Point","coordinates":[-73.8803,40.7794]},"properties":{"GHCN_ID":"USW00014732","Elev":"3.4","State":"NY","Name":"NEW YORK LAGUARDIA","Probability_of_Snow_Depth_GT_0":0.12,"Median_of_Snow_Depth_GT_0_inches":"3","Probability_of_Snowfall_GT_0":0.11,"Median_of_Snowfall_GT_0_inches":"0.7"}},{"type":"Feature","geometry":{"type":"Point","coordinates":[-73.8842,41.6267]},"properties":{"GHCN_ID":"USW00014757","Elev":"50.6","State":"NY","Name":"POUGHKEEPSIE DUTCHE","Probability_of_Snow_Depth_GT_0":0.31,"Median_of_Snow_Depth_GT_0_inches":"3","Probability_of_Snowfall_GT_0":0.11,"Median_of_Snowfall_GT_0_inches":"1.6"}},{"type":"Feature","geometry":{"type":"Point","coordinates":[-73.8969,43.6611]},"properties":{"GHCN_ID":"USC00305925","Elev":"271.3","State":"NY","Name":"NORTH CREEK 5 SE","Probability_of_Snow_Depth_GT_0":0.87,"Median_of_Snow_Depth_GT_0_inches":"6","Probability_of_Snowfall_GT_0":0.27,"Median_of_Snowfall_GT_0_inches":"1"}},{"type":"Feature","geometry":{"type":"Point","coordinates":[-73.9256,43.3203]},"properties":{"GHCN_ID":"USC00301708","Elev":"246.3","State":"NY","Name":"CONKLINGVILLE DAM","Probability_of_Snow_Depth_GT_0":0.7,"Median_of_Snow_Depth_GT_0_inches":"5","Probability_of_Snowfall_GT_0":0.22,"Median_of_Snowfall_GT_0_inches":"1.4"}},{"type":"Feature","geometry":{"type":"Point","coordinates":[-73.9692,40.7789]},"properties":{"GHCN_ID":"USW00094728","Elev":"39.6","State":"NY","Name":"NEW YORK CNTRL PK T","Probability_of_Snow_Depth_GT_0":0.11,"Median_of_Snow_Depth_GT_0_inches":"3","Probability_of_Snowfall_GT_0":0.09,"Median_of_Snowfall_GT_0_inches":0}},{"type":"Feature","geometry":{"type":"Point","coordinates":[-73.9808,40.5939]},"properties":{"GHCN_ID":"USC00305796","Elev":"6.1","State":"NY","Name":"NY AVE V BROOKLYN","Probability_of_Snow_Depth_GT_0":0.1,"Median_of_Snow_Depth_GT_0_inches":0,"Probability_of_Snowfall_GT_0":0.09,"Median_of_Snowfall_GT_0_inches":0}},{"type":"Feature","geometry":{"type":"Point","coordinates":[-73.9855,44.2444]},"properties":{"GHCN_ID":"USC00304555","Elev":"591.3","State":"NY","Name":"LAKE PLACID 2 S","Probability_of_Snow_Depth_GT_0":0.87,"Median_of_Snow_Depth_GT_0_inches":"6","Probability_of_Snowfall_GT_0":0.39,"Median_of_Snowfall_GT_0_inches":"1"}},{"type":"Feature","geometry":{"type":"Point","coordinates":[-74.0833,40.8667]},"properties":{"GHCN_ID":"USC00284931","Elev":"15.2","State":"NJ","Name":"LODI","Probability_of_Snow_Depth_GT_0":0.2,"Median_of_Snow_Depth_GT_0_inches":"2","Probability_of_Snowfall_GT_0":0.12,"Median_of_Snowfall_GT_0_inches":"0.8"}},{"type":"Feature","geometry":{"type":"Point","coordinates":[-74.155,41.7681]},"properties":{"GHCN_ID":"USC00305426","Elev":"379.5","State":"NY","Name":"MOHONK LAKE","Probability_of_Snow_Depth_GT_0":0.54,"Median_of_Snow_Depth_GT_0_inches":"5","Probability_of_Snowfall_GT_0":0.2,"Median_of_Snowfall_GT_0_inches":"1.1"}},{"type":"Feature","geometry":{"type":"Point","coordinates":[-74.1567,40.7514]},"properties":{"GHCN_ID":"USC00283704","Elev":"7.3","State":"NJ","Name":"HARRISON","Probability_of_Snow_Depth_GT_0":0.13,"Median_of_Snow_Depth_GT_0_inches":"4","Probability_of_Snowfall_GT_0":0.08,"Median_of_Snowfall_GT_0_inches":0}},{"type":"Feature","geometry":{"type":"Point","coordinates":[-74.1628,41.5514]},"properties":{"GHCN_ID":"USC00308906","Elev":"115.8","State":"NY","Name":"WALDEN 1 ESE","Probability_of_Snow_Depth_GT_0":0.42,"Median_of_Snow_Depth_GT_0_inches":"3","Probability_of_Snowfall_GT_0":0.11,"Median_of_Snowfall_GT_0_inches":"2"}},{"type":"Feature","geometry":{"type":"Point","coordinates":[-74.1694,40.6825]},"properties":{"GHCN_ID":"USW00014734","Elev":"2.1","State":"NJ","Name":"NEWARK INTL AP","Probability_of_Snow_Depth_GT_0":0.13,"Median_of_Snow_Depth_GT_0_inches":"3","Probability_of_Snowfall_GT_0":0.11,"Median_of_Snowfall_GT_0_inches":"0.8"}},{"type":"Feature","geometry":{"type":"Point","coordinates":[-74.1981,43.0508]},"properties":{"GHCN_ID":"USC00300929","Elev":"256","State":"NY","Name":"BROADALBIN","Probability_of_Snow_Depth_GT_0":0.7,"Median_of_Snow_Depth_GT_0_inches":"5","Probability_of_Snowfall_GT_0":0.29,"Median_of_Snowfall_GT_0_inches":"1.1"}},{"type":"Feature","geometry":{"type":"Point","coordinates":[-74.2011,42.3031]},"properties":{"GHCN_ID":"USC00309516","Elev":"512.1","State":"NY","Name":"WINDHAM 3 E","Probability_of_Snow_Depth_GT_0":0.29,"Median_of_Snow_Depth_GT_0_inches":"3","Probability_of_Snowfall_GT_0":0.11,"Median_of_Snowfall_GT_0_inches":0}},{"type":"Feature","geometry":{"type":"Point","coordinates":[-74.2042,43.1592]},