{"type":"FeatureCollection","features":[{"type":"Feature","geometry":{"type":"Point","coordinates":[174.1,52.7167]},"properties":{"GHCN_ID":"USW00045715","Elev":37.2,"State":"AK","Name":"SHEMYA USAF BASE","Probability_of_Snow_Depth_GT_0":0.52,"Median_of_Snow_Depth_GT_0_inches":2,"Probability_of_Snowfall_GT_0":0.66,"Median_of_Snowfall_GT_0_inches":0,"Zone":5}},{"type":"Feature","geometry":{"type":"Point","coordinates":[-66.9919,44.9067]},"properties":{"GHCN_ID":"USC00172426","Elev":25.9,"State":"ME","Name":"EASTPORT","Probability_of_Snow_Depth_GT_0":0.48,"Median_of_Snow_Depth_GT_0_inches":3,"Probability_of_Snowfall_GT_0":0.23,"Median_of_Snowfall_GT_0_inches":1,"Zone":4}},{"type":"Feature","geometry":{"type":"Point","coordinates":[-67.1203,45.0853]},"properties":{"GHCN_ID":"USC00177238","Elev":35.1,"State":"ME","Name":"ROBBINSTON","Probability_of_Snow_Depth_GT_0":0.71,"Median_of_Snow_Depth_GT_0_inches":6,"Probability_of_Snowfall_GT_0":0.31,"Median_of_Snowfall_GT_0_inches":1,"Zone":5}},{"type":"Feature","geometry":{"type":"Point","coordinates":[-67.4303,45.5608]},"properties":{"GHCN_ID":"USC00178974","Elev":128,"State":"ME","Name":"VANCEBORO NO 2","Probability_of_Snow_Depth_GT_0":0.69,"Median_of_Snow_Depth_GT_0_inches":6,"Probability_of_Snowfall_GT_0":0.21,"Median_of_Snowfall_GT_0_inches":2,"Zone":5}},{"type":"Feature","geometry":{"type":"Point","coordinates":[-67.4539,44.72]},"properties":{"GHCN_ID":"USC00174878","Elev":6.1,"State":"ME","Name":"MACHIAS","Probability_of_Snow_Depth_GT_0":0.48,"Median_of_Snow_Depth_GT_0_inches":4,"Probability_of_Snowfall_GT_0":0.22,"Median_of_Snowfall_GT_0_inches":2,"Zone":4}},{"type":"Feature","geometry":{"type":"Point","coordinates":[-67.6475,44.6439]},"properties":{"GHCN_ID":"USC00174183","Elev":56.4,"State":"ME","Name":"JONESBORO","Probability_of_Snow_Depth_GT_0":0.53,"Median_of_Snow_Depth_GT_0_inches":4,"Probability_of_Snowfall_GT_0":0.16,"Median_of_Snowfall_GT_0_inches":2,"Zone":5}},{"type":"Feature","geometry":{"type":"Point","coordinates":[-67.7928,46.1236]},"properties":{"GHCN_ID":"USW00014609","Elev":145.1,"State":"ME","Name":"HOULTON INTL AP","Probability_of_Snow_Depth_GT_0":0.8,"Median_of_Snow_Depth_GT_0_inches":6,"Probability_of_Snowfall_GT_0":0.31,"Median_of_Snowfall_GT_0_inches":1,"Zone":6}},{"type":"Feature","geometry":{"type":"Point","coordinates":[-67.8417,46.2061]},"properties":{"GHCN_ID":"USC00173944","Elev":118.9,"State":"ME","Name":"HOULTON 5N","Probability_of_Snow_Depth_GT_0":0.83,"Median_of_Snow_Depth_GT_0_inches":7,"Probability_of_Snowfall_GT_0":0.34,"Median_of_Snowfall_GT_0_inches":1,"Zone":6}},{"type":"Feature","geometry":{"type":"Point","coordinates":[-67.8442,46.4283]},"properties":{"GHCN_ID":"USC00170833","Elev":128,"State":"ME","Name":"BRIDGEWATER","Probability_of_Snow_Depth_GT_0":0.87,"Median_of_Snow_Depth_GT_0_inches":8,"Probability_of_Snowfall_GT_0":0.25,"Median_of_Snowfall_GT_0_inches":1,"Zone":6}},{"type":"Feature","geometry":{"type":"Point","coordinates":[-67.8614,45.6611]},"properties":{"GHCN_ID":"USC00171833","Elev":144.8,"State":"ME","Name":"DANFORTH","Probability_of_Snow_Depth_GT_0":0.69,"Median_of_Snow_Depth_GT_0_inches":6,"Probability_of_Snowfall_GT_0":0.2,"Median_of_Snowfall_GT_0_inches":1,"Zone":5}},{"type":"Feature","geometry":{"type":"Point","coordinates":[-67.9397,47.1664]},"properties":{"GHCN_ID":"USC00178965","Elev":139,"State":"ME","Name":"VAN BUREN 2","Probability_of_Snow_Depth_GT_0":0.86,"Median_of_Snow_Depth_GT_0_inches":10,"Probability_of_Snowfall_GT_0":0.23,"Median_of_Snowfall_GT_0_inches":2,"Zone":6}},{"type":"Feature","geometry":{"type":"Point","coordinates":[-68.0089,46.6539]},"properties":{"GHCN_ID":"USC00176937","Elev":182.6,"State":"ME","Name":"PRESQUE ISLE","Probability_of_Snow_Depth_GT_0":0.85,"Median_of_Snow_Depth_GT_0_inches":9,"Probability_of_Snowfall_GT_0":0.22,"Median_of_Snowfall_GT_0_inches":2,"Zone":6}},{"type":"Feature","geometry":{"type":"Point","coordinates":[-68.0172,46.8706]},"properties":{"GHCN_ID":"USW00014607","Elev":190.2,"State":"ME","Name":"CARIBOU MUNI AP","Probability_of_Snow_Depth_GT_0":0.86,"Median_of_Snow_Depth_GT_0_inches":8,"Probability_of_Snowfall_GT_0":0.42,"Median_of_Snowfall_GT_0_inches":0,"Zone":6}},{"type":"Feature","geometry":{"type":"Point","coordinates":[-68.1667,45.4]},"properties":{"GHCN_ID":"USC00178353","Elev":134.1,"State":"ME","Name":"SPRINGFIELD","Probability_of_Snow_Depth_GT_0":0.73,"Median_of_Snow_Depth_GT_0_inches":8,"Probability_of_Snowfall_GT_0":0.23,"Median_of_Snowfall_GT_0_inches":2,"Zone":5}},{"type":"Feature","geometry":{"type":"Point","coordinates":[-68.2592,44.3739]},"properties":{"GHCN_ID":"USC00170100","Elev":143.3,"State":"ME","Name":"ACADIA NP","Probability_of_Snow_Depth_GT_0":0.51,"Median_of_Snow_Depth_GT_0_inches":6,"Probability_of_Snowfall_GT_0":0.16,"Median_of_Snowfall_GT_0_inches":2,"Zone":5}},{"type":"Feature","geometry":{"type":"Point","coordinates":[-68.6136,47.2386]},"properties":{"GHCN_ID":"USC00172878","Elev":185.9,"State":"ME","Name":"FT KENT","Probability_of_Snow_Depth_GT_0":0.92,"Median_of_Snow_Depth_GT_0_inches":9,"Probability_of_Snowfall_GT_0":0.27,"Median_of_Snowfall_GT_0_inches":1,"Zone":7}},{"type":"Feature","geometry":{"type":"Point","coordinates":[-68.8186,44.7978]},"properties":{"GHCN_ID":"USW00014606","Elev":45.1,"State":"ME","Name":"BANGOR INTL AP","Probability_of_Snow_Depth_GT_0":0.63,"Median_of_Snow_Depth_GT_0_inches":4,"Probability_of_Snowfall_GT_0":0.22,"Median_of_Snowfall_GT_0_inches":1,"Zone":5}},{"type":"Feature","geometry":{"type":"Point","coordinates":[-69.025,47.0886]},"properties":{"GHCN_ID":"USC00170200","Elev":181.7,"State":"ME","Name":"ALLAGASH","Probability_of_Snow_Depth_GT_0":0.96,"Median_of_Snow_Depth_GT_0_inches":10,"Probability_of_Snowfall_GT_0":0.26,"Median_of_Snowfall_GT_0_inches":1,"Zone":7}},{"type":"Feature","geometry":{"type":"Point","coordinates":[-69.1467,45.2883]},"properties":{"GHCN_ID":"USC00170398","Elev":166.1,"State":"ME","Name":"BARNARD","Probability_of_Snow_Depth_GT_0":0.82,"Median_of_Snow_Depth_GT_0_inches":7,"Probability_of_Snowfall_GT_0":0.26,"Median_of_Snowfall_GT_0_inches":1,"Zone":6}},{"type":"Feature","geometry":{"type":"Point","coordinates":[-69.1839,45.1872]},"properties":{"GHCN_ID":"USC00171975","Elev":112.8,"State":"ME","Name":"DOVER-FOXCROFT WWTP","Probability_of_Snow_Depth_GT_0":0.85,"Median_of_Snow_Depth_GT_0_inches":8,"Probability_of_Snowfall_GT_0":0.26,"Median_of_Snowfall_GT_0_inches":1,"Zone":6}},{"type":"Feature","geometry":{"type":"Point","coordinates":[-69.2278,45.2536]},"properties":{"GHCN_ID":"USC00177654","Elev":115.8,"State":"ME","Name":"SEBEC LAKE","Probability_of_Snow_Depth_GT_0":0.83,"Median_of_Snow_Depth_GT_0_inches":7,"Probability_of_Snowfall_GT_0":0.33,"Median_of_Snowfall_GT_0_inches":1,"Zone":6}},{"type":"Feature","geometry":{"type":"Point","coordinates":[-69.2417,44.9197]},"properties":{"GHCN_ID":"USC00171628","Elev":90.5,"State":"ME","Name":"CORINNA","Probability_of_Snow_Depth_GT_0":0.76,"Median_of_Snow_Depth_GT_0_inches":7,"Probability_of_Snowfall_GT_0":0.2,"Median_of_Snowfall_GT_0_inches":2,"Zone":6}},{"type":"Feature","geometry":{"type":"Point","coordinates":[-69.2622,43.9186]},"properties":{"GHCN_ID":"USC00176881","Elev":9.1,"State":"ME","Name":"PORT CLYDE","Probability_of_Snow_Depth_GT_0":0.38,"Median_of_Snow_Depth_GT_0_inches":4,"Probability_of_Snowfall_GT_0":0.15,"Median_of_Snowfall_GT_0_inches":1,"Zone":4}},{"type":"Feature","geometry":{"type":"Point","coordinates":[-69.3817,45.1703]},"properties":{"GHCN_ID":"USC00173417","Elev":121.9,"State":"ME","Name":"GUILFORD","Probability_of_Snow_Depth_GT_0":0.82,"Median_of_Snow_Depth_GT_0_inches":8,"Probability_of_Snowfall_GT_0":0.24,"Median_of_Snowfall_GT_0_inches":1,"Zone":6}},{"type":"Feature","geometry":{"type":"Point","coordinates":[-69.4836,44.4822]},"properties":{"GHCN_ID":"USC00170177","Elev":97.5,"State":"ME","Name":"ALBION","Probability_of_Snow_Depth_GT_0":0.75,"Median_of_Snow_Depth_GT_0_inches":6,"Probability_of_Snowfall_GT_0":0.31,"Median_of_Snowfall_GT_0_inches":1,"Zone":6}},{"type":"Feature","geometry":{"type":"Point","coordinates":[-69.5367,44.0461]},"properties":{"GHCN_ID":"USC00175675","Elev":57.9,"State":"ME","Name":"NEWCASTLE","Probability_of_Snow_Depth_GT_0":0.61,"Median_of_Snow_Depth_GT_0_inches":5,"Probability_of_Snowfall_GT_0":0.27,"Median_of_Snowfall_GT_0_inches":1,"Zone":5}},{"type":"Feature","geometry":{"type":"Point","coordinates":[-69.5458,44.9442]},"properties":{"GHCN_ID":"USC00173567","Elev":97.5,"State":"ME","Name":"HARMONY","Probability_of_Snow_Depth_GT_0":0.7,"Median_of_Snow_Depth_GT_0_inches":7,"Probability_of_Snowfall_GT_0":0.2,"Median_of_Snowfall_GT_0_inches":2,"Zone":5}},{"type":"Feature","geometry":{"type":"Point","coordinates":[-69.6544,44.5272]},"properties":{"GHCN_ID":"USC00179151","Elev":22.3,"State":"ME","Name":"WATERVILLE TRTMT PL","Probability_of_Snow_Depth_GT_0":0.7,"Median_of_Snow_Depth_GT_0_inches":5,"Probability_of_Snowfall_GT_0":0.2,"Median_of_Snowfall_GT_0_inches":2,"Zone":5}},{"type":"Feature","geometry":{"type":"Point","coordinates":[-69.7161,45.5869]},"properties":{"GHCN_ID":"USC00175460","Elev":313.3,"State":"ME","Name":"MOOSEHEAD","Probability_of_Snow_Depth_GT_0":0.9,"Median_of_Snow_Depth_GT_0_inches":6,"Probability_of_Snowfall_GT_0":0.36,"Median_of_Snowfall_GT_0_inches":1,"Zone":7}},{"type":"Feature","geometry":{"type":"Point","coordinates":[-69.7889,44.2203]},"properties":{"GHCN_ID":"USC00173046","Elev":42.7,"State":"ME","Name":"GARDINER","Probability_of_Snow_Depth_GT_0":0.63,"Median_of_Snow_Depth_GT_0_inches":5,"Probability_of_Snowfall_GT_0":0.15,"Median_of_Snowfall_GT_0_inches":2,"Zone":5}},{"type":"Feature","geometry":{"type":"Point","coordinates":[-69.7972,44.3206]},"properties":{"GHCN_ID":"USW00014605","Elev":106.7,"State":"ME","Name":"AUGUSTA STATE AP","Probability_of_Snow_Depth_GT_0":0.64,"Median_of_Snow_Depth_GT_0_inches":5,"Probability_of_Snowfall_GT_0":0.24,"Median_of_Snowfall_GT_0_inches":1,"Zone":5}},{"type":"Feature","geometry":{"type":"Point","coordinates":[-69.812,45.6603]},"properties":{"GHCN_ID":"USC00170814","Elev":323.1,"State":"ME","Name":"BRASSUA DAM","Probability_of_Snow_Depth_GT_0":0.92,"Median_of_Snow_Depth_GT_0_inches":8,"Probability_of_Snowfall_GT_0":0.34,"Median_of_Snowfall_GT_0_inches":1,"Zone":7}},{"type":"Feature","geometry":{"type":"Point","coordinates":[-69.8564,43.9317]},"properties":{"GHCN_ID":"USC00170409","Elev":7.6,"State":"ME","Name":"BATH","Probability_of_Snow_Depth_GT_0":0.55,"Median_of_Snow_Depth_GT_0_inches":4,"Probability_of_Snowfall_GT_0":0.22,"Median_of_Snowfall_GT_0_inches":1,"Zone":5}},{"type":"Feature","geometry":{"type":"Point","coordinates":[-69.9333,43.9]},"properties":{"GHCN_ID":"USW00014611","Elev":21.3,"State":"ME","Name":"BRUNSWICK NAS","Probability_of_Snow_Depth_GT_0":0.46,"Median_of_Snow_Depth_GT_0_inches":5,"Probability_of_Snowfall_GT_0":0.18,"Median_of_Snowfall_GT_0_inches":1,"Zone":4}},{"type":"Feature","geometry":{"type":"Point","coordinates":[-69.9589,41.6569]},"properties":{"GHCN_ID":"USC00191386","Elev":12.2,"State":"MA","Name":"CHATHAM","Probability_of_Snow_Depth_GT_0":0.14,"Median_of_Snow_Depth_GT_0_inches":3,"Probability_of_Snowfall_GT_0":0.08,"Median_of_Snowfall_GT_0_inches":0,"Zone":2}},{"type":"Feature","geometry":{"type":"Point","coordinates":[-70.0003,44.6353]},"properties":{"GHCN_ID":"USC00175736","Elev":146.3,"State":"ME","Name":"NEW SHARON","Probability_of_Snow_Depth_GT_0":0.76,"Median_of_Snow_Depth_GT_0_inches":6,"Probability_of_Snowfall_GT_0":0.22,"Median_of_Snowfall_GT_0_inches":2,"Zone":6}},{"type":"Feature","geometry":{"type":"Point","coordinates":[-70.055,43.9869]},"properties":{"GHCN_ID":"USC00172048","Elev":44.2,"State":"ME","Name":"DURHAM","Probability_of_Snow_Depth_GT_0":0.71,"Median_of_Snow_Depth_GT_0_inches":6,"Probability_of_Snowfall_GT_0":0.24,"Median_of_Snowfall_GT_0_inches":1,"Zone":5}},{"type":"Feature","geometry":{"type":"Point","coordinates":[-70.1567,44.6889]},"properties":{"GHCN_ID":"USC00172765","Elev":128,"State":"ME","Name":"FARMINGTON","Probability_of_Snow_Depth_GT_0":0.75,"Median_of_Snow_Depth_GT_0_inches":9,"Probability_of_Snowfall_GT_0":0.22,"Median_of_Snowfall_GT_0_inches":2,"Zone":6}},{"type":"Feature","geometry":{"type":"Point","coordinates":[-70.1711,44.9656]},"properties":{"GHCN_ID":"USC00174324","Elev":192,"State":"ME","Name":"KINGFIELD","Probability_of_Snow_Depth_GT_0":0.76,"Median_of_Snow_Depth_GT_0_inches":5,"Probability_of_Snowfall_GT_0":0.22,"Median_of_Snowfall_GT_0_inches":1,"Zone":6}},{"type":"Feature","geometry":{"type":"Point","coordinates":[-70.1983,45.2219]},"properties":{"GHCN_ID":"USC00174781","Elev":353.6,"State":"ME","Name":"LONG FALLS DAM","Probability_of_Snow_Depth_GT_0":0.94,"Median_of_Snow_Depth_GT_0_inches":9,"Probability_of_Snowfall_GT_0":0.36,"Median_of_Snowfall_GT_0_inches":1,"Zone":7}},{"type":"Feature","geometry":{"type":"Point","coordinates":[-70.2167,44.1]},"properties":{"GHCN_ID":"USC00174566","Elev":54.9,"State":"ME","Name":"LEWISTON","Probability_of_Snow_Depth_GT_0":0.6,"Median_of_Snow_Depth_GT_0_inches":5,"Probability_of_Snowfall_GT_0":0.2,"Median_of_Snowfall_GT_0_inches":1,"Zone":5}},{"type":"Feature","geometry":{"type":"Point","coordinates":[-70.2544,43.8925]},"properties":{"GHCN_ID":"USC00173295","Elev":115.2,"State":"ME","Name":"GRAY","Probability_of_Snow_Depth_GT_0":0.67,"Median_of_Snow_Depth_GT_0_inches":4,"Probability_of_Snowfall_GT_0":0.27,"Median_of_Snowfall_GT_0_inches":1,"Zone":5}},{"type":"Feature","geometry":{"type":"Point","coordinates":[-70.255,45.6233]},"properties":{"GHCN_ID":"USC00174086","Elev":362.7,"State":"ME","Name":"JACKMAN","Probability_of_Snow_Depth_GT_0":0.92,"Median_of_Snow_Depth_GT_0_inches":9,"Probability_of_Snowfall_GT_0":0.28,"Median_of_Snowfall_GT_0_inches":1,"Zone":7}},{"type":"Feature","geometry":{"type":"Point","coordinates":[-70.3003,43.6497]},"properties":{"GHCN_ID":"USW00014764","Elev":13.7,"State":"ME","Name":"PORTLAND INTL JETPO","Probability_of_Snow_Depth_GT_0":0.48,"Median_of_Snow_Depth_GT_0_inches":5,"Probability_of_Snowfall_GT_0":0.22,"Median_of_Snowfall_GT_0_inches":1,"Zone":4}},{"type":"Feature","geometry":{"type":"Point","coordinates":[-70.3039,41.665]},"properties":{"GHCN_ID":"USC00193821","Elev":15.2,"State":"MA","Name":"HYANNIS","Probability_of_Snow_Depth_GT_0":0.12,"Median_of_Snow_Depth_GT_0_inches":2,"Probability_of_Snowfall_GT_0":0.05,"Median_of_Snowfall_GT_0_inches":0,"Zone":2}},{"type":"Feature","geometry":{"type":"Point","coordinates":[-70.35,44.8167]},"properties":{"GHCN_ID":"USC00176705","Elev":182.9,"State":"ME","Name":"PHILLIPS","Probability_of_Snow_Depth_GT_0":0.84,"Median_of_Snow_Depth_GT_0_inches":11,"Probability_of_Snowfall_GT_0":0.17,"Median_of_Snowfall_GT_0_inches":2,"Zone":6}},{"type":"Feature","geometry":{"type":"Point","coordinates":[-70.3608,44.0069]},"properties":{"GHCN_ID":"USC00176856","Elev":170.7,"State":"ME","Name":"POLAND","Probability_of_Snow_Depth_GT_0":0.66,"Median_of_Snow_Depth_GT_0_inches":5,"Probability_of_Snowfall_GT_0":0.24,"Median_of_Snowfall_GT_0_inches":1,"Zone":5}},{"type":"Feature","geometry":{"type":"Point","coordinates":[-70.4697,43.3606]},"properties":{"GHCN_ID":"USC00174193","Elev":6.1,"State":"ME","Name":"KENNEBUNKPORT","Probability_of_Snow_Depth_GT_0":0.45,"Median_of_Snow_Depth_GT_0_inches":5,"Probability_of_Snowfall_GT_0":0.15,"Median_of_Snowfall_GT_0_inches":1,"Zone":4}},{"type":"Feature","geometry":{"type":"Point","coordinates":[-70.4825,45.2172]},"properties":{"GHCN_ID":"USC00172700","Elev":384,"State":"ME","Name":"EUSTIS","Probability_of_Snow_Depth_GT_0":0.97,"Median_of_Snow_Depth_GT_0_inches":9,"Probability_of_Snowfall_GT_0":0.35,"Median_of_Snowfall_GT_0_inches":1,"Zone":7}},{"type":"Feature","geometry":{"type":"Point","coordinates":[-70.5181,41.3853]},"properties":{"GHCN_ID":"USC00192501","Elev":9.1,"State":"MA","Name":"EDGARTOWN","Probability_of_Snow_Depth_GT_0":0.15,"Median_of_Snow_Depth_GT_0_inches":3,"Probability_of_Snowfall_GT_0":0.07,"Median_of_Snowfall_GT_0_inches":0,"Zone":2}},{"type":"Feature","geometry":{"type":"Point","coordinates":[-70.5372,44.5308]},"properties":{"GHCN_ID":"USC00177325","Elev":192,"State":"ME","Name":"RUMFORD 1 SSE","Probability_of_Snow_Depth_GT_0":0.83,"Median_of_Snow_Depth_GT_0_inches":7,"Probability_of_Snowfall_GT_0":0.2,"Median_of_Snowfall_GT_0_inches":2,"Zone":6}},{"type":"Feature","geometry":{"type":"Point","coordinates":[-70.5833,44.3333]},"properties":{"GHCN_ID":"USC00179538","Elev":164.6,"State":"ME","Name":"WEST PARIS","Probability_of_Snow_Depth_GT_0":0.7,"Median_of_Snow_Depth_GT_0_inches":7,"Probability_of_Snowfall_GT_0":0.18,"Median_of_Snowfall_GT_0_inches":2,"Zone":5}},{"type":"Feature","geometry":{"type":"Point","coordinates":[-70.6697,41.7653]},"properties":{"GHCN_ID":"USC00192451","Elev":9.1,"State":"MA","Name":"EAST WAREHAM","Probability_of_Snow_Depth_GT_0":0.21,"Median_of_Snow_Depth_GT_0_inches":3,"Probability_of_Snowfall_GT_0":0.11,"Median_of_Snowfall_GT_0_inches":1,"Zone":3}},{"type":"Feature","geometry":{"type":"Point","coordinates":[-70.6719,44.9892]},"properties":{"GHCN_ID":"USC00177037","Elev":466.3,"State":"ME","Name":"RANGELEY","Probability_of_Snow_Depth_GT_0":0.93,"Median_of_Snow_Depth_GT_0_inches":8,"Probability_of_Snowfall_GT_0":0.46,"Median_of_Snowfall_GT_0_inches":1,"Zone":7}},{"type":"Feature","geometry":{"type":"Point","coordinates":[-70.675,43.6478]},"properties":{"GHCN_ID":"USC00173862","Elev":96,"State":"ME","Name":"HOLLIS","Probability_of_Snow_Depth_GT_0":0.7,"Median_of_Snow_Depth_GT_0_inches":7,"Probability_of_Snowfall_GT_0":0.25,"Median_of_Snowfall_GT_0_inches":1,"Zone":5}},{"type":"Feature","geometry":{"type":"Point","coordinates":[-70.6961,41.9819]},"properties":{"GHCN_ID":"USC00196486","Elev":13.7,"State":"MA","Name":"PLYMOUTH-KINGSTON","Probability_of_Snow_Depth_GT_0":0.22,"Median_of_Snow_Depth_GT_0_inches":4,"Probability_of_Snowfall_GT_0":0.1,"Median_of_Snowfall_GT_0_inches":0,"Zone":3}},{"type":"Feature","geometry":{"type":"Point","coordinates":[-70.7539,43.8786]},"properties":{"GHCN_ID":"USC00172238","Elev":160.9,"State":"ME","Name":"EAST HIRAM","Probability_of_Snow_Depth_GT_0":0.76,"Median_of_Snow_Depth_GT_0_inches":8,"Probability_of_Snowfall_GT_0":0.22,"Median_of_Snowfall_GT_0_inches":1,"Zone":6}},{"type":"Feature","geometry":{"type":"Point","coordinates":[-70.8333,43.0167]},"properties":{"GHCN_ID":"USC00273626","Elev":25.9,"State":"NH","Name":"GREENLAND","Probability_of_Snow_Depth_GT_0":0.47,"Median_of_Snow_Depth_GT_0_inches":4,"Probability_of_Snowfall_GT_0":0.18,"Median_of_Snowfall_GT_0_inches":1,"Zone":4}},{"type":"Feature","geometry":{"type":"Point","coordinates":[-70.8644,42.5008]},"properties":{"GHCN_ID":"USC00194502","Elev":25.6,"State":"MA","Name":"MARBLEHEAD","Probability_of_Snow_Depth_GT_0":0.26,"Median_of_Snow_Depth_GT_0_inches":4,"Probability_of_Snowfall_GT_0":0.11,"Median_of_Snowfall_GT_0_inches":2,"Zone":3}},{"type":"Feature","geometry":{"type":"Point","coordinates":[-70.8944,44.1569]},"properties":{"GHCN_ID":"USC00174817","Elev":149.4,"State":"ME","Name":"LOVELL","Probability_of_Snow_Depth_GT_0":0.78,"Median_of_Snow_Depth_GT_0_inches":6,"Probability_of_Snowfall_GT_0":0.18,"Median_of_Snowfall_GT_0_inches":1,"Zone":6}},{"type":"Feature","geometry":{"type":"Point","coordinates":[-70.8997,42.8633]},"properties":{"GHCN_ID":"USC00195285","Elev":25.9,"State":"MA","Name":"NEWBURYPORT 4 NNW","Probability_of_Snow_Depth_GT_0":0.37,"Median_of_Snow_Depth_GT_0_inches":5,"Probability_of_Snowfall_GT_0":0.18,"Median_of_Snowfall_GT_0_inches":1,"Zone":4}},{"type":"Feature","geometry":{"type":"Point","coordinates":[-70.9125,42.2269]},"properties":{"GHCN_ID":"USC00193624","Elev":10.7,"State":"MA","Name":"HINGHAM","Probability_of_Snow_Depth_GT_0":0.32,"Median_of_Snow_Depth_GT_0_inches":3,"Probability_of_Snowfall_GT_0":0.2,"Median_of_Snowfall_GT_0_inches":0,"Zone":4}},{"type":"Feature","geometry":{"type":"Point","coordinates":[-70.9333,42.15]},"properties":{"GHCN_ID":"USW00014790","Elev":47.9,"State":"MA","Name":"SOUTH WEYMOUTH NAS","Probability_of_Snow_Depth_GT_0":0.23,"Median_of_Snow_Depth_GT_0_inches":4,"Probability_of_Snowfall_GT_0":0.15,"Median_of_Snowfall_GT_0_inches":0,"Zone":3}},{"type":"Feature","geometry":{"type":"Point","coordinates":[-70.95,43.15]},"properties":{"GHCN_ID":"USC00272174","Elev":24.4,"State":"NH","Name":"DURHAM","Probability_of_Snow_Depth_GT_0":0.44,"Median_of_Snow_Depth_GT_0_inches":5,"Probability_of_Snowfall_GT_0":0.11,"Median_of_Snowfall_GT_0_inches":2,"Zone":4}},{"type":"Feature","geometry":{"type":"Point","coordinates":[-70.9828,43.3003]},"properties":{"GHCN_ID":"USC00277253","Elev":70.1,"State":"NH","Name":"ROCHESTER","Probability_of_Snow_Depth_GT_0":0.5,"Median_of_Snow_Depth_GT_0_inches":4,"Probability_of_Snowfall_GT_0":0.18,"Median_of_Snowfall_GT_0_inches":1,"Zone":5}},{"type":"Feature","geometry":{"type":"Point","coordinates":[-70.9833,42.5333]},"properties":{"GHCN_ID":"USC00196245","Elev":51.8,"State":"MA","Name":"PEABODY","Probability_of_Snow_Depth_GT_0":0.27,"Median_of_Snow_Depth_GT_0_inches":3,"Probability_of_Snowfall_GT_0":0.12,"Median_of_Snowfall_GT_0_inches":1,"Zone":3}},{"type":"Feature","geometry":{"type":"Point","coordinates":[-71.0106,42.3606]},"properties":{"GHCN_ID":"USW00014739","Elev":3.7,"State":"MA","Name":"BOSTON LOGAN INTL A","Probability_of_Snow_Depth_GT_0":0.19,"Median_of_Snow_Depth_GT_0_inches":3,"Probability_of_Snowfall_GT_0":0.17,"Median_of_Snowfall_GT_0_inches":0,"Zone":2}},{"type":"Feature","geometry":{"type":"Point","coordinates":[-71.0425,42.7467]},"properties":{"GHCN_ID":"USC00193276","Elev":10.1,"State":"MA","Name":"GROVELAND","Probability_of_Snow_Depth_GT_0":0.49,"Median_of_Snow_Depth_GT_0_inches":6,"Probability_of_Snowfall_GT_0":0.21,"Median_of_Snowfall_GT_0_inches":1,"Zone":4}},{"type":"Feature","geometry":{"type":"Point","coordinates":[-71.0658,41.9003]},"properties":{"GHCN_ID":"USC00198367","Elev":6.1,"State":"MA","Name":"TAUNTON","Probability_of_Snow_Depth_GT_0":0.22,"Median_of_Snow_Depth_GT_0_inches":4,"Probability_of_Snowfall_GT_0":0.08,"Median_of_Snowfall_GT_0_inches":0,"Zone":3}},{"type":"Feature","geometry":{"type":"Point","coordinates":[-71.1136,42.2122]},"properties":{"GHCN_ID":"USW00014753","Elev":190.5,"State":"MA","Name":"BLUE HILL","Probability_of_Snow_Depth_GT_0":0.39,"Median_of_Snow_Depth_GT_0_inches":4,"Probability_of_Snowfall_GT_0":0.22,"Median_of_Snowfall_GT_0_inches":1,"Zone":4}},{"type":"Feature","geometry":{"type":"Point","coordinates":[-71.1264,42.5242]},"properties":{"GHCN_ID":"USC00196783","Elev":27.4,"State":"MA","Name":"READING","Probability_of_Snow_Depth_GT_0":0.43,"Median_of_Snow_Depth_GT_0_inches":4,"Probability_of_Snowfall_GT_0":0.21,"Median_of_Snowfall_GT_0_inches":1,"Zone":4}},{"type":"Feature","geometry":{"type":"Point","coordinates":[-71.1383,44.0303]},"properties":{"GHCN_ID":"USC00275995","Elev":165.8,"State":"NH","Name":"NORTH CONWAY","Probability_of_Snow_Depth_GT_0":0.77,"Median_of_Snow_Depth_GT_0_inches":7,"Probability_of_Snowfall_GT_0":0.3,"Median_of_Snowfall_GT_0_inches":1,"Zone":6}},{"type":"Feature","geometry":{"type":"Point","coordinates":[-71.1842,44.4486]},"properties":{"GHCN_ID":"USC00270690","Elev":283.5,"State":"NH","Name":"BERLIN","Probability_of_Snow_Depth_GT_0":0.82,"Median_of_Snow_Depth_GT_0_inches":7,"Probability_of_Snowfall_GT_0":0.23,"Median_of_Snowfall_GT_0_inches":2,"Zone":6}},{"type":"Feature","geometry":{"type":"Point","coordinates":[-71.2461,42.1608]},"properties":{"GHCN_ID":"USC00198757","Elev":50.3,"State":"MA","Name":"WALPOLE 2","Probability_of_Snow_Depth_GT_0":0.42,"Median_of_Snow_Depth_GT_0_inches":5,"Probability_of_Snowfall_GT_0":0.19,"Median_of_Snowfall_GT_0_inches":1,"Zone":4}},{"type":"Feature","geometry":{"type":"Point","coordinates":[-71.255,44.2633]},"properties":{"GHCN_ID":"USC00276818","Elev":612.6,"State":"NH","Name":"PINKHAM NOTCH","Probability_of_Snow_Depth_GT_0":0.91,"Median_of_Snow_Depth_GT_0_inches":11,"Probability_of_Snowfall_GT_0":0.33,"Median_of_Snowfall_GT_0_inches":1,"Zone":7}},{"type":"Feature","geometry":{"type":"Point","coordinates":[-71.2833,42.4833]},"properties":{"GHCN_ID":"USC00190535","Elev":48.8,"State":"MA","Name":"BEDFORD","Probability_of_Snow_Depth_GT_0":0.43,"Median_of_Snow_Depth_GT_0_inches":4,"Probability_of_Snowfall_GT_0":0.21,"Median_of_Snowfall_GT_0_inches":0,"Zone":4}},{"type":"Feature","geometry":{"type":"Point","coordinates":[-71.2872,45.0875]},"properties":{"GHCN_ID":"USC00272999","Elev":506,"State":"NH","Name":"FIRST CONNECTICUT L","Probability_of_Snow_Depth_GT_0":0.97,"Median_of_Snow_Depth_GT_0_inches":10,"Probability_of_Snowfall_GT_0":0.53,"Median_of_Snowfall_GT_0_inches":1,"Zone":7}},{"type":"Feature","geometry":{"type":"Point","coordinates":[-71.2994,44.2667]},"properties":{"GHCN_ID":"USW00014755","Elev":1910.2,"State":"NH","Name":"MT WASHINGTON","Probability_of_Snow_Depth_GT_0":0.94,"Median_of_Snow_Depth_GT_0_inches":5,"Probability_of_Snowfall_GT_0":0.62,"Median_of_Snowfall_GT_0_inches":1,"Zone":7}},{"type":"Feature","geometry":{"type":"Point","coordinates":[-71.3,43.9]},"properties":{"GHCN_ID":"USC00278612","Elev":240.8,"State":"NH","Name":"TAMWORTH 3","Probability_of_Snow_Depth_GT_0":0.81,"Median_of_Snow_Depth_GT_0_inches":8,"Probability_of_Snowfall_GT_0":0.28,"Median_of_Snowfall_GT_0_inches":1,"Zone":6}},{"type":"Feature","geometry":{"type":"Point","coordinates":[-71.3439,42.2825]},"properties":{"GHCN_ID":"USC00195175","Elev":54.9,"State":"MA","Name":"NATICK","Probability_of_Snow_Depth_GT_0":0.41,"Median_of_Snow_Depth_GT_0_inches":4,"Probability_of_Snowfall_GT_0":0.13,"Median_of_Snowfall_GT_0_inches":2,"Zone":4}},{"type":"Feature","geometry":{"type":"Point","coordinates":[-71.3636,42.6408]},"properties":{"GHCN_ID":"USC00194313","Elev":33.5,"State":"MA","Name":"LOWELL","Probability_of_Snow_Depth_GT_0":0.44,"Median_of_Snow_Depth_GT_0_inches":4,"Probability_of_Snowfall_GT_0":0.15,"Median_of_Snowfall_GT_0_inches":1,"Zone":4}},{"type":"Feature","geometry":{"type":"Point","coordinates":[-71.4094,42.0792]},"properties":{"GHCN_ID":"USC00192997","Elev":76.2,"State":"MA","Name":"FRANKLIN","Probability_of_Snow_Depth_GT_0":0.41,"Median_of_Snow_Depth_GT_0_inches":4,"Probability_of_Snowfall_GT_0":0.11,"Median_of_Snowfall_GT_0_inches":2,"Zone":4}},{"type":"Feature","geometry":{"type":"Point","coordinates":[-71.4147,42.7831]},"properties":{"GHCN_ID":"USC00274234","Elev":56.4,"State":"NH","Name":"HUDSON 1 SSE","Probability_of_Snow_Depth_GT_0":0.58,"Median_of_Snow_Depth_GT_0_inches":4,"Probability_of_Snowfall_GT_0":0.2,"Median_of_Snowfall_GT_0_inches":1,"Zone":5}},{"type":"Feature","geometry":{"type":"Point","coordinates":[-71.4325,41.7219]},"properties":{"GHCN_ID":"USW00014765","Elev":18.3,"State":"RI","Name":"PROVIDENCE T F GREE","Probability_of_Snow_Depth_GT_0":0.22,"Median_of_Snow_Depth_GT_0_inches":3,"Probability_of_Snowfall_GT_0":0.15,"Median_of_Snowfall_GT_0_inches":1,"Zone":3}},{"type":"Feature","geometry":{"type":"Point","coordinates":[-71.4333,42.1333]},"properties":{"GHCN_ID":"USC00199316","Elev":64,"State":"MA","Name":"WEST MEDWAY","Probability_of_Snow_Depth_GT_0":0.32,"Median_of_Snow_Depth_GT_0_inches":4,"Probability_of_Snowfall_GT_0":0.13,"Median_of_Snowfall_GT_0_inches":1,"Zone":4}},{"type":"Feature","geometry":{"type":"Point","coordinates":[-71.4642,43.5492]},"properties":{"GHCN_ID":"USC00274480","Elev":152.4,"State":"NH","Name":"LAKEPORT 2","Probability_of_Snow_Depth_GT_0":0.59,"Median_of_Snow_Depth_GT_0_inches":4,"Probability_of_Snowfall_GT_0":0.17,"Median_of_Snowfall_GT_0_inches":2,"Zone":5}},{"type":"Feature","geometry":{"type":"Point","coordinates":[-71.4664,43.7003]},"properties":{"GHCN_ID":"USC00275350","Elev":253,"State":"NH","Name":"MEREDITH 3 NNE","Probability_of_Snow_Depth_GT_0":0.75,"Median_of_Snow_Depth_GT_0_inches":6,"Probability_of_Snowfall_GT_0":0.22,"Median_of_Snowfall_GT_0_inches":1,"Zone":6}},{"type":"Feature","geometry":{"type":"Point","coordinates":[-71.4833,43.7333]},"properties":{"GHCN_ID":"USC00275532","Elev":182.9,"State":"NH","Name":"MOULTONBORO 5 WSW","Probability_of_Snow_Depth_GT_0":0.78,"Median_of_Snow_Depth_GT_0_inches":6,"Probability_of_Snowfall_GT_0":0.31,"Median_of_Snowfall_GT_0_inches":0,"Zone":6}},{"type":"Feature","geometry":{"type":"Point","coordinates":[-71.4908,41.9844]},"properties":{"GHCN_ID":"USC00379423","Elev":33.5,"State":"RI","Name":"WOONSOCKET","Probability_of_Snow_Depth_GT_0":0.39,"Median_of_Snow_Depth_GT_0_inches":3,"Probability_of_Snowfall_GT_0":0.12,"Median_of_Snowfall_GT_0_inches":1,"Zone":4}},{"type":"Feature","geometry":{"type":"Point","coordinates":[-71.5008,44.4169]},"properties":{"GHCN_ID":"USC00274329","Elev":376.4,"State":"NH","Name":"JEFFERSON","Probability_of_Snow_Depth_GT_0":0.81,"Median_of_Snow_Depth_GT_0_inches":6,"Probability_of_Snowfall_GT_0":0.42,"Median_of_Snowfall_GT_0_inches":0,"Zone":6}},{"type":"Feature","geometry":{"type":"Point","coordinates":[-71.5011,43.1953]},"properties":{"GHCN_ID":"USW00014745","Elev":105.5,"State":"NH","Name":"CONCORD MUNI AP","Probability_of_Snow_Depth_GT_0":0.59,"Median_of_Snow_Depth_GT_0_inches":5,"Probability_of_Snowfall_GT_0":0.23,"Median_of_Snowfall_GT_0_inches":1,"Zone":5}},{"type":"Feature","geometry":{"type":"Point","coordinates":[-71.5356,44.9964]},"properties":{"GHCN_ID":"USC00431213","Elev":326.1,"State":"VT","Name":"CANAAN","Probability_of_Snow_Depth_GT_0":0.89,"Median_of_Snow_Depth_GT_0_inches":7,"Probability_of_Snowfall_GT_0":0.42,"Median_of_Snowfall_GT_0_inches":1,"Zone":6}},{"type":"Feature","geometry":{"type":"Point","coordinates":[-71.54,44.8611]},"properties":{"GHCN_ID":"USC00271647","Elev":341.4,"State":"NH","Name":"COLEBROOK 3SW","Probability_of_Snow_Depth_GT_0":0.83,"Median_of_Snow_Depth_GT_0_inches":6,"Probability_of_Snowfall_GT_0":0.3,"Median_of_Snowfall_GT_0_inches":1,"Zone":6}},{"type":"Feature","geometry":{"type":"Point","coordinates":[-71.5414,41.4906]},"properties":{"GHCN_ID":"USC00374266","Elev":34.7,"State":"RI","Name":"KINGSTON","Probability_of_Snow_Depth_GT_0":0.23,"Median_of_Snow_Depth_GT_0_inches":3,"Probability_of_Snowfall_GT_0":0.11,"Median_of_Snowfall_GT_0_inches":1,"Zone":3}},{"type":"Feature","geometry":{"type":"Point","coordinates":[-71.5725,44.4911]},"properties":{"GHCN_ID":"USC00274556","Elev":262.1,"State":"NH","Name":"LANCASTER","Probability_of_Snow_Depth_GT_0":0.82,"Median_of_Snow_Depth_GT_0_inches":6,"Probability_of_Snowfall_GT_0":0.38,"Median_of_Snowfall_GT_0_inches":1,"Zone":6}},{"type":"Feature","geometry":{"type":"Point","coordinates":[-71.6303,44.75]},"properties":{"GHCN_ID":"USC00276234","Elev":277.4,"State":"NH","Name":"NORTH STRATFORD","Probability_of_Snow_Depth_GT_0":0.87,"Median_of_Snow_Depth_GT_0_inches":8,"Probability_of_Snowfall_GT_0":0.38,"Median_of_Snowfall_GT_0_inches":1,"Zone":6}},{"type":"Feature","geometry":{"type":"Point","coordinates":[-71.6486,42.8394]},"properties":{"GHCN_ID":"USC00275412","Elev":97.5,"State":"NH","Name":"MILFORD","Probability_of_Snow_Depth_GT_0":0.62,"Median_of_Snow_Depth_GT_0_inches":5,"Probability_of_Snowfall_GT_0":0.19,"Median_of_Snowfall_GT_0_inches":1,"Zone":5}},{"type":"Feature","geometry":{"type":"Point","coordinates":[-71.65,43.7833]},"properties":{"GHCN_ID":"USC00276945","Elev":201.2,"State":"NH","Name":"PLYMOUTH","Probability_of_Snow_Depth_GT_0":0.7,"Median_of_Snow_Depth_GT_0_inches":4,"Probability_of_Snowfall_GT_0":0.23,"Median_of_Snowfall_GT_0_inches":1,"Zone":5}},{"type":"Feature","geometry":{"type":"Point","coordinates":[-71.6575,44.3064]},"properties":{"GHCN_ID":"USC00270706","Elev":359.7,"State":"NH","Name":"BETHLEHEM 2","Probability_of_Snow_Depth_GT_0":0.83,"Median_of_Snow_Depth_GT_0_inches":8,"Probability_of_Snowfall_GT_0":0.39,"Median_of_Snowfall_GT_0_inches":1,"Zone":6}},{"type":"Feature","geometry":{"type":"Point","coordinates":[-71.6758,42.115]},"properties":{"GHCN_ID":"USC00195524","Elev":96,"State":"MA","Name":"NORTHBRIDGE 2","Probability_of_Snow_Depth_GT_0":0.38,"Median_of_Snow_Depth_GT_0_inches":4,"Probability_of_Snowfall_GT_0":0.14,"Median_of_Snowfall_GT_0_inches":1,"Zone":4}},{"type":"Feature","geometry":{"type":"Point","coordinates":[-71.7333,41.8564]},"properties":{"GHCN_ID":"USC00375270","Elev":192,"State":"RI","Name":"NORTH FOSTER 1 E","Probability_of_Snow_Depth_GT_0":0.45,"Median_of_Snow_Depth_GT_0_inches":5,"Probability_of_Snowfall_GT_0":0.2,"Median_of_Snowfall_GT_0_inches":1,"Zone":4}},{"type":"Feature","geometry":{"type":"Point","coordinates":[-71.7383,43.0847]},"properties":{"GHCN_ID":"USC00278972","Elev":219.5,"State":"NH","Name":"WEARE","Probability_of_Snow_Depth_GT_0":0.69,"Median_of_Snow_Depth_GT_0_inches":5,"Probability_of_Snowfall_GT_0":0.18,"Median_of_Snowfall_GT_0_inches":1,"Zone":5}},{"type":"Feature","geometry":{"type":"Point","coordinates":[-71.8678,43.0908]},"properties":{"GHCN_ID":"USC00271950","Elev":325.2,"State":"NH","Name":"DEERING","Probability_of_Snow_Depth_GT_0":0.72,"Median_of_Snow_Depth_GT_0_inches":5,"Probability_of_Snowfall_GT_0":0.2,"Median_of_Snowfall_GT_0_inches":1,"Zone":5}},{"type":"Feature","geometry":{"type":"Point","coordinates":[-71.8731,42.2706]},"properties":{"GHCN_ID":"USW00094746","Elev":304.8,"State":"MA","Name":"WORCESTER RGNL AP","Probability_of_Snow_Depth_GT_0":0.43,"Median_of_Snow_Depth_GT_0_inches":3,"Probability_of_Snowfall_GT_0":0.25,"Median_of_Snowfall_GT_0_inches":0,"Zone":4}},{"type":"Feature","geometry":{"type":"Point","coordinates":[-71.8903,44.8128]},"properties":{"GHCN_ID":"USC00434120","Elev":365.8,"State":"VT","Name":"ISLAND POND","Probability_of_Snow_Depth_GT_0":0.93,"Median_of_Snow_Depth_GT_0_inches":8,"Probability_of_Snowfall_GT_0":0.48,"Median_of_Snowfall_GT_0_inches":1,"Zone":7}},{"type":"Feature","geometry":{"type":"Point","coordinates":[-71.8947,43.9847]},"properties":{"GHCN_ID":"USC00273415","Elev":329.2,"State":"NH","Name":"GLENCLIFF 2","Probability_of_Snow_Depth_GT_0":0.77,"Median_of_Snow_Depth_GT_0_inches":5,"Probability_of_Snowfall_GT_0":0.23,"Median_of_Snowfall_GT_0_inches":1,"Zone":6}},{"type":"Feature","geometry":{"type":"Point","coordinates":[-71.9031,41.9442]},"properties":{"GHCN_ID":"USC00069388","Elev":112.8,"State":"CT","Name":"WEST THOMPSON LAKE","Probability_of_Snow_Depth_GT_0":0.35,"Median_of_Snow_Depth_GT_0_inches":3,"Probability_of_Snowfall_GT_0":0.11,"Median_of_Snowfall_GT_0_inches":2,"Zone":4}},{"type":"Feature","geometry":{"type":"Point","coordinates":[-71.9156,43.9522]},"properties":{"GHCN_ID":"USC00279091","Elev":189,"State":"NH","Name":"WENTWORTH","Probability_of_Snow_Depth_GT_0":0.75,"Median_of_Snow_Depth_GT_0_inches":4,"Probability_of_Snowfall_GT_0":0.3,"Median_of_Snowfall_GT_0_inches":1,"Zone":6}},{"type":"Feature","geometry":{"type":"Point","coordinates":[-71.9158,42.6178]},"properties":{"GHCN_ID":"USC00190190","Elev":337.7,"State":"MA","Name":"ASHBURNHAM","Probability_of_Snow_Depth_GT_0":0.65,"Median_of_Snow_Depth_GT_0_inches":5,"Probability_of_Snowfall_GT_0":0.26,"Median_of_Snowfall_GT_0_inches":1,"Zone":5}},{"type":"Feature","geometry":{"type":"Point","coordinates":[-71.9486,44.0342]},"properties":{"GHCN_ID":"USC00270681","Elev":365.8,"State":"NH","Name":"BENTON 5 SW","Probability_of_Snow_Depth_GT_0":0.76,"Median_of_Snow_Depth_GT_0_inches":4,"Probability_of_Snowfall_GT_0":0.36,"Median_of_Snowfall_GT_0_inches":0,"Zone":6}},{"type":"Feature","geometry":{"type":"Point","coordinates":[-71.98,43.2586]},"properties":{"GHCN_ID":"USC00270910","Elev":286.5,"State":"NH","Name":"BRADFORD","Probability_of_Snow_Depth_GT_0":0.72,"Median_of_Snow_Depth_GT_0_inches":5,"Probability_of_Snowfall_GT_0":0.2,"Median_of_Snowfall_GT_0_inches":1,"Zone":5}},{"type":"Feature","geometry":{"type":"Point","coordinates":[-71.9833,44.6464]},"properties":{"GHCN_ID":"USC00439099","Elev":274.3,"State":"VT","Name":"WEST BURKE","Probability_of_Snow_Depth_GT_0":0.95,"Median_of_Snow_Depth_GT_0_inches":9,"Probability_of_Snowfall_GT_0":0.37,"Median_of_Snowfall_GT_0_inches":1,"Zone":7}},{"type":"Feature","geometry":{"type":"Point","coordinates":[-72.0194,44.42]},"properties":{"GHCN_ID":"USW00054742","Elev":213.4,"State":"VT","Name":"SAINT JOHNSBURY","Probability_of_Snow_Depth_GT_0":0.83,"Median_of_Snow_Depth_GT_0_inches":6,"Probability_of_Snowfall_GT_0":0.44,"Median_of_Snowfall_GT_0_inches":0,"Zone":6}},{"type":"Feature","geometry":{"type":"Point","coordinates":[-72.0275,42.4283]},"properties":{"GHCN_ID":"USC00190408","Elev":253,"State":"MA","Name":"BARRE FALLS DAM","Probability_of_Snow_Depth_GT_0":0.55,"Median_of_Snow_Depth_GT_0_inches":4,"Probability_of_Snowfall_GT_0":0.18,"Median_of_Snowfall_GT_0_inches":1,"Zone":5}},{"type":"Feature","geometry":{"type":"Point","coordinates":[-72.0389,41.3511]},"properties":{"GHCN_ID":"USC00063207","Elev":12.2,"State":"CT","Name":"GROTON","Probability_of_Snow_Depth_GT_0":0.18,"Median_of_Snow_Depth_GT_0_inches":2,"Probability_of_Snowfall_GT_0":0.09,"Median_of_Snowfall_GT_0_inches":0,"Zone":2}},{"type":"Feature","geometry":{"type":"Point","coordinates":[-72.0722,42.0583]},"properties":{"GHCN_ID":"USC00197627","Elev":208.8,"State":"MA","Name":"SOUTHBRIDGE 3 SW","Probability_of_Snow_Depth_GT_0":0.38,"Median_of_Snow_Depth_GT_0_inches":4,"Probability_of_Snowfall_GT_0":0.15,"Median_of_Snowfall_GT_0_inches":2,"Zone":4}},{"type":"Feature","geometry":{"type":"Point","coordinates":[-72.0753,44.0503]},"properties":{"GHCN_ID":"USC00437646","Elev":143.3,"State":"VT","Name":"SOUTH NEWBURY","Probability_of_Snow_Depth_GT_0":0.69,"Median_of_Snow_Depth_GT_0_inches":5,"Probability_of_Snowfall_GT_0":0.2,"Median_of_Snowfall_GT_0_inches":2,"Zone":5}},{"type":"Feature","geometry":{"type":"Point","coordinates":[-72.1233,42.6325]},"properties":{"GHCN_ID":"USC00190666","Elev":263,"State":"MA","Name":"BIRCH HILL DAM","Probability_of_Snow_Depth_GT_0":0.53,"Median_of_Snow_Depth_GT_0_inches":4,"Probability_of_Snowfall_GT_0":0.13,"Median_of_Snowfall_GT_0_inches":1,"Zone":5}},{"type":"Feature","geometry":{"type":"Point","coordinates":[-72.1269,42.1103]},"properties":{"GHCN_ID":"USC00192107","Elev":213.4,"State":"MA","Name":"EAST BRIMFIELD LAKE","Probability_of_Snow_Depth_GT_0":0.49,"Median_of_Snow_Depth_GT_0_inches":4,"Probability_of_Snowfall_GT_0":0.18,"Median_of_Snowfall_GT_0_inches":2,"Zone":4}},{"type":"Feature","geometry":{"type":"Point","coordinates":[-72.1753,43.3836]},"properties":{"GHCN_ID":"USC00275868","Elev":240.8,"State":"NH","Name":"NEWPORT","Probability_of_Snow_Depth_GT_0":0.72,"Median_of_Snow_Depth_GT_0_inches":5,"Probability_of_Snowfall_GT_0":0.22,"Median_of_Snowfall_GT_0_inches":1,"Zone":5}},{"type":"Feature","geometry":{"type":"Point","coordinates":[-72.1858,41.7572]},"properties":{"GHCN_ID":"USC00064488","Elev":76.2,"State":"CT","Name":"MANSFIELD HOLLOW LA","Probability_of_Snow_Depth_GT_0":0.31,"Median_of_Snow_Depth_GT_0_inches":3,"Probability_of_Snowfall_GT_0":0.09,"Median_of_Snowfall_GT_0_inches":0,"Zone":4}},{"type":"Feature","geometry":{"type":"Point","coordinates":[-72.1911,44.9489]},"properties":{"GHCN_ID":"USC00435542","Elev":240.8,"State":"VT","Name":"NEWPORT","Probability_of_Snow_Depth_GT_0":0.87,"Median_of_Snow_Depth_GT_0_inches":7,"Probability_of_Snowfall_GT_0":0.43,"Median_of_Snowfall_GT_0_inches":0,"Zone":6}},{"type":"Feature","geometry":{"type":"Point","coordinates":[-72.2003,43.1175]},"properties":{"GHCN_ID":"USC00275150","Elev":359.7,"State":"NH","Name":"MARLOW","Probability_of_Snow_Depth_GT_0":0.73,"Median_of_Snow_Depth_GT_0_inches":5,"Probability_of_Snowfall_GT_0":0.22,"Median_of_Snowfall_GT_0_inches":1,"Zone":5}},{"type":"Feature","geometry":{"type":"Point","coordinates":[-72.2244,42.64]},"properties":{"GHCN_ID":"USC00198573","Elev":208.8,"State":"MA","Name":"TULLY LAKE","Probability_of_Snow_Depth_GT_0":0.59,"Median_of_Snow_Depth_GT_0_inches":5,"Probability_of_Snowfall_GT_0":0.16,"Median_of_Snowfall_GT_0_inches":2,"Zone":5}},{"type":"Feature","geometry":{"type":"Point","coordinates":[-72.2483,42.2622]},"properties":{"GHCN_ID":"USC00198793","Elev":121.9,"State":"MA","Name":"WARE","Probability_of_Snow_Depth_GT_0":0.5,"Median_of_Snow_Depth_GT_0_inches":3,"Probability_of_Snowfall_GT_0":0.14,"Median_of_Snowfall_GT_0_inches":2,"Zone":5}},{"type":"Feature","geometry":{"type":"Point","coordinates":[-72.2578,43.7917]},"properties":{"GHCN_ID":"USC00438556","Elev":140.2,"State":"VT","Name":"UNION VILLAGE DAM","Probability_of_Snow_Depth_GT_0":0.77,"Median_of_Snow_Depth_GT_0_inches":5,"Probability_of_Snowfall_GT_0":0.2,"Median_of_Snowfall_GT_0_inches":1,"Zone":6}},{"type":"Feature","geometry":{"type":"Point","coordinates":[-72.2847,43.7033]},"properties":{"GHCN_ID":"USC00273850","Elev":183.8,"State":"NH","Name":"HANOVER","Probability_of_Snow_Depth_GT_0":0.71,"Median_of_Snow_Depth_GT_0_inches":5,"Probability_of_Snowfall_GT_0":0.23,"Median_of_Snowfall_GT_0_inches":1,"Zone":5}},{"type":"Feature","geometry":{"type":"Point","coordinates":[-72.3069,40.9461]},"properties":{"GHCN_ID":"USC00300889","Elev":18.3,"State":"NY","Name":"BRIDGEHAMPTON","Probability_of_Snow_Depth_GT_0":0.15,"Median_of_Snow_Depth_GT_0_inches":2,"Probability_of_Snowfall_GT_0":0.08,"Median_of_Snowfall_GT_0_inches":0,"Zone":2}},{"type":"Feature","geometry":{"type":"Point","coordinates":[-72.3247,42.9389]},"properties":{"GHCN_ID":"USC00274399","Elev":155.8,"State":"NH","Name":"KEENE","Probability_of_Snow_Depth_GT_0":0.66,"Median_of_Snow_Depth_GT_0_inches":4,"Probability_of_Snowfall_GT_0":0.21,"Median_of_Snowfall_GT_0_inches":1,"Zone":5}},{"type":"Feature","geometry":{"type":"Point","coordinates":[-72.4053,43.0739]},"properties":{"GHCN_ID":"USC00278858","Elev":283.5,"State":"NH","Name":"WALPOLE 3","Probability_of_Snow_Depth_GT_0":0.71,"Median_of_Snow_Depth_GT_0_inches":5,"Probability_of_Snowfall_GT_0":0.15,"Median_of_Snowfall_GT_0_inches":2,"Zone":5}},{"type":"Feature","geometry":{"type":"Point","coordinates":[-72.45,43.9833]},"properties":{"GHCN_ID":"USC00431360","Elev":243.8,"State":"VT","Name":"CHELSEA","Probability_of_Snow_Depth_GT_0":0.84,"Median_of_Snow_Depth_GT_0_inches":6,"Probability_of_Snowfall_GT_0":0.27,"Median_of_Snowfall_GT_0_inches":1,"Zone":6}},{"type":"Feature","geometry":{"type":"Point","coordinates":[-72.45,43.1333]},"properties":{"GHCN_ID":"USC00430499","Elev":82.3,"State":"VT","Name":"BELLOWS FALLS","Probability_of_Snow_Depth_GT_0":0.63,"Median_of_Snow_Depth_GT_0_inches":4,"Probability_of_Snowfall_GT_0":0.19,"Median_of_Snowfall_GT_0_inches":1,"Zone":5}},{"type":"Feature","geometry":{"type":"Point","coordinates":[-72.5375,42.3861]},"properties":{"GHCN_ID":"USC00190120","Elev":43.3,"State":"MA","Name":"AMHERST","Probability_of_Snow_Depth_GT_0":0.45,"Median_of_Snow_Depth_GT_0_inches":3,"Probability_of_Snowfall_GT_0":0.13,"Median_of_Snowfall_GT_0_inches":2,"Zone":4}},{"type":"Feature","geometry":{"type":"Point","coordinates":[-72.5528,42.4444]},"properties":{"GHCN_ID":"USC00198278","Elev":68.6,"State":"MA","Name":"SUNDERLAND","Probability_of_Snow_Depth_GT_0":0.5,"Median_of_Snow_Depth_GT_0_inches":3,"Probability_of_Snowfall_GT_0":0.18,"Median_of_Snowfall_GT_0_inches":1,"Zone":5}},{"type":"Feature","geometry":{"type":"Point","coordinates":[-72.5794,44.2033]},"properties":{"GHCN_ID":"USW00094705","Elev":343.2,"State":"VT","Name":"BARRE MONTPELIER AP","Probability_of_Snow_Depth_GT_0":0.81,"Median_of_Snow_Depth_GT_0_inches":5,"Probability_of_Snowfall_GT_0":0.38,"Median_of_Snowfall_GT_0_inches":1,"Zone":6}},{"type":"Feature","geometry":{"type":"Point","coordinates":[-72.5989,43.3847]},"properties":{"GHCN_ID":"USC00431243","Elev":256.6,"State":"VT","Name":"CAVENDISH","Probability_of_Snow_Depth_GT_0":0.85,"Median_of_Snow_Depth_GT_0_inches":5,"Probability_of_Snowfall_GT_0":0.28,"Median_of_Snowfall_GT_0_inches":1,"Zone":6}},{"type":"Feature","geometry":{"type":"Point","coordinates":[-72.6344,43.8833]},"properties":{"GHCN_ID":"USC00430661","Elev":201.2,"State":"VT","Name":"BETHEL 4 N","Probability_of_Snow_Depth_GT_0":0.86,"Median_of_Snow_Depth_GT_0_inches":6,"Probability_of_Snowfall_GT_0":0.24,"Median_of_Snowfall_GT_0_inches":1,"Zone":6}},{"type":"Feature","geometry":{"type":"Point","coordinates":[-72.6567,44.1647]},"properties":{"GHCN_ID":"USC00435733","Elev":204.2,"State":"VT","Name":"NORTHFIELD","Probability_of_Snow_Depth_GT_0":0.84,"Median_of_Snow_Depth_GT_0_inches":6,"Probability_of_Snowfall_GT_0":0.24,"Median_of_Snowfall_GT_0_inches":1,"Zone":6}},{"type":"Feature","geometry":{"type":"Point","coordinates":[-72.6825,41.9381]},"properties":{"GHCN_ID":"USW00014740","Elev":57.9,"State":"CT","Name":"HARTFORD BRADLEY IN","Probability_of_Snow_Depth_GT_0":0.28,"Median_of_Snow_Depth_GT_0_inches":2,"Probability_of_Snowfall_GT_0":0.17,"Median_of_Snowfall_GT_0_inches":0,"Zone":3}},{"type":"Feature","geometry":{"type":"Point","coordinates":[-72.7,42.6667]},"properties":{"GHCN_ID":"USC00191611","Elev":190.5,"State":"MA","Name":"COLRAIN","Probability_of_Snow_Depth_GT_0":0.78,"Median_of_Snow_Depth_GT_0_inches":4,"Probability_of_Snowfall_GT_0":0.17,"Median_of_Snowfall_GT_0_inches":1,"Zone":6}},{"type":"Feature","geometry":{"type":"Point","coordinates":[-72.7103,43.3939]},"properties":{"GHCN_ID":"USC00434747","Elev":385.6,"State":"VT","Name":"LUDLOW","Probability_of_Snow_Depth_GT_0":0.85,"Median_of_Snow_Depth_GT_0_inches":6,"Probability_of_Snowfall_GT_0":0.28,"Median_of_Snowfall_GT_0_inches":1,"Zone":6}},{"type":"Feature","geometry":{"type":"Point","coordinates":[-72.7158,40.9619]},"properties":{"GHCN_ID":"USC00307134","Elev":30.5,"State":"NY","Name":"RIVERHEAD RSCH FM","Probability_of_Snow_Depth_GT_0":0.16,"Median_of_Snow_Depth_GT_0_inches":3,"Probability_of_Snowfall_GT_0":0.08,"Median_of_Snowfall_GT_0_inches":0,"Zone":2}},{"type":"Feature","geometry":{"type":"Point","coordinates":[-72.7167,41.55]},"properties":{"GHCN_ID":"USC00064767","Elev":112.5,"State":"CT","Name":"MIDDLETOWN 4 W","Probability_of_Snow_Depth_GT_0":0.27,"Median_of_Snow_Depth_GT_0_inches":5,"Probability_of_Snowfall_GT_0":0.12,"Median_of_Snowfall_GT_0_inches":1,"Zone":3}},{"type":"Feature","geometry":{"type":"Point","coordinates":[-72.75,44.3167]},"properties":{"GHCN_ID":"USC00438815","Elev":231.6,"State":"VT","Name":"WATERBURY 2 SSE","Probability_of_Snow_Depth_GT_0":0.91,"Median_of_Snow_Depth_GT_0_inches":8,"Probability_of_Snowfall_GT_0":0.5,"Median_of_Snowfall_GT_0_inches":0,"Zone":7}},{"type":"Feature","geometry":{"type":"Point","coordinates":[-72.8045,43.8578]},"properties":{"GHCN_ID":"USC00436893","Elev":253,"State":"VT","Name":"ROCHESTER","Probability_of_Snow_Depth_GT_0":0.74,"Median_of_Snow_Depth_GT_0_inches":5,"Probability_of_Snowfall_GT_0":0.21,"Median_of_Snowfall_GT_0_inches":1,"Zone":5}},{"type":"Feature","geometry":{"type":"Point","coordinates":[-72.8083,44.9094]},"properties":{"GHCN_ID":"USC00432769","Elev":128,"State":"VT","Name":"ENOSBURG FALLS","Probability_of_Snow_Depth_GT_0":0.74,"Median_of_Snow_Depth_GT_0_inches":5,"Probability_of_Snowfall_GT_0":0.33,"Median_of_Snowfall_GT_0_inches":1,"Zone":5}},{"type":"Feature","geometry":{"type":"Point","coordinates":[-72.8153,44.5247]},"properties":{"GHCN_ID":"USC00435416","Elev":1204,"State":"VT","Name":"MT MANSFIELD","Probability_of_Snow_Depth_GT_0":0.99,"Median_of_Snow_Depth_GT_0_inches":28,"Probability_of_Snowfall_GT_0":0.55,"Median_of_Snowfall_GT_0_inches":1,"Zone":7}},{"type":"Feature","geometry":{"type":"Point","coordinates":[-72.85,43.0331]},"properties":{"GHCN_ID":"USC00439591","Elev":429.8,"State":"VT","Name":"WEST WARDSBORO","Probability_of_Snow_Depth_GT_0":0.83,"Median_of_Snow_Depth_GT_0_inches":7,"Probability_of_Snowfall_GT_0":0.36,"Median_of_Snowfall_GT_0_inches":1,"Zone":6}},{"type":"Feature","geometry":{"type":"Point","coordinates":[-72.8508,42.5133]},"properties":{"GHCN_ID":"USC00190213","Elev":408.4,"State":"MA","Name":"ASHFIELD","Probability_of_Snow_Depth_GT_0":0.74,"Median_of_Snow_Depth_GT_0_inches":6,"Probability_of_Snowfall_GT_0":0.22,"Median_of_Snowfall_GT_0_inches":1,"Zone":5}},{"type":"Feature","geometry":{"type":"Point","coordinates":[-72.8781,44.1872]},"properties":{"GHCN_ID":"USC00438637","Elev":313.3,"State":"VT","Name":"WAITSFIELD 2 W","Probability_of_Snow_Depth_GT_0":0.84,"Median_of_Snow_Depth_GT_0_inches":5,"Probability_of_Snowfall_GT_0":0.34,"Median_of_Snowfall_GT_0_inches":1,"Zone":6}},{"type":"Feature","geometry":{"type":"Point","coordinates":[-72.9033,41.4075]},"properties":{"GHCN_ID":"USC00065077","Elev":54.9,"State":"CT","Name":"MT CARMEL","Probability_of_Snow_Depth_GT_0":0.29,"Median_of_Snow_Depth_GT_0_inches":3,"Probability_of_Snowfall_GT_0":0.11,"Median_of_Snowfall_GT_0_inches":1,"Zone":3}},{"type":"Feature","geometry":{"type":"Point","coordinates":[-72.9211,42.3869]},"properties":{"GHCN_ID":"USC00199972","Elev":391.7,"State":"MA","Name":"WORTHINGTON","Probability_of_Snow_Depth_GT_0":0.7,"Median_of_Snow_Depth_GT_0_inches":5,"Probability_of_Snowfall_GT_0":0.37,"Median_of_Snowfall_GT_0_inches":0,"Zone":5}},{"type":"Feature","geometry":{"type":"Point","coordinates":[-72.9617,43.7064]},"properties":{"GHCN_ID":"USC00431433","Elev":354.5,"State":"VT","Name":"CHITTENDEN","Probability_of_Snow_Depth_GT_0":0.75,"Median_of_Snow_Depth_GT_0_inches":5,"Probability_of_Snowfall_GT_0":0.27,"Median_of_Snowfall_GT_0_inches":1,"Zone":6}},{"type":"Feature","geometry":{"type":"Point","coordinates":[-72.9644,41.9211]},"properties":{"GHCN_ID":"USC00060299","Elev":214.9,"State":"CT","Name":"BARKHAMSTED","Probability_of_Snow_Depth_GT_0":0.44,"Median_of_Snow_Depth_GT_0_inches":5,"Probability_of_Snowfall_GT_0":0.11,"Median_of_Snowfall_GT_0_inches":2,"Zone":4}},{"type":"Feature","geometry":{"type":"Point","coordinates":[-72.9736,44.0725]},"properties":{"GHCN_ID":"USC00437612","Elev":408.7,"State":"VT","Name":"SOUTH LINCOLN","Probability_of_Snow_Depth_GT_0":0.82,"Median_of_Snow_Depth_GT_0_inches":5,"Probability_of_Snowfall_GT_0":0.4,"Median_of_Snowfall_GT_0_inches":1,"Zone":6}},{"type":"Feature","geometry":{"type":"Point","coordinates":[-72.9781,43.6253]},"properties":{"GHCN_ID":"USC00436995","Elev":189,"State":"VT","Name":"RUTLAND","Probability_of_Snow_Depth_GT_0":0.69,"Median_of_Snow_Depth_GT_0_inches":4,"Probability_of_Snowfall_GT_0":0.26,"Median_of_Snowfall_GT_0_inches":1,"Zone":5}},{"type":"Feature","geometry":{"type":"Point","coordinates":[-73.0014,40.7967]},"properties":{"GHCN_ID":"USC00306441","Elev":16.8,"State":"NY","Name":"PATCHOGUE 2 N","Probability_of_Snow_Depth_GT_0":0.17,"Median_of_Snow_Depth_GT_0_inches":3,"Probability_of_Snowfall_GT_0":0.09,"Median_of_Snowfall_GT_0_inches":0,"Zone":2}},{"type":"Feature","geometry":{"type":"Point","coordinates":[-73.0086,41.8417]},"properties":{"GHCN_ID":"USC00060227","Elev":209.1,"State":"CT","Name":"BAKERSVILLE","Probability_of_Snow_Depth_GT_0":0.57,"Median_of_Snow_Depth_GT_0_inches":5,"Probability_of_Snowfall_GT_0":0.23,"Median_of_Snowfall_GT_0_inches":0,"Zone":5}},{"type":"Feature","geometry":{"type":"Point","coordinates":[-73.0911,44.8592]},"properties":{"GHCN_ID":"USC00437032","Elev":115.8,"State":"VT","Name":"ST ALBANS RADIO","Probability_of_Snow_Depth_GT_0":0.62,"Median_of_Snow_Depth_GT_0_inches":5,"Probability_of_Snowfall_GT_0":0.32,"Median_of_Snowfall_GT_0_inches":1,"Zone":5}},{"type":"Feature","geometry":{"type":"Point","coordinates":[-73.0992,43.9256]},"properties":{"GHCN_ID":"USC00437098","Elev":128,"State":"VT","Name":"SALISBURY 2 N","Probability_of_Snow_Depth_GT_0":0.63,"Median_of_Snow_Depth_GT_0_inches":5,"Probability_of_Snowfall_GT_0":0.21,"Median_of_Snowfall_GT_0_inches":1,"Zone":5}},{"type":"Feature","geometry":{"type":"Point","coordinates":[-73.1017,40.7939]},"properties":{"GHCN_ID":"USW00004781","Elev":25.6,"State":"NY","Name":"ISLIP LI MACARTHUR","Probability_of_Snow_Depth_GT_0":0.14,"Median_of_Snow_Depth_GT_0_inches":3,"Probability_of_Snowfall_GT_0":0.09,"Median_of_Snowfall_GT_0_inches":0,"Zone":2}},{"type":"Feature","geometry":{"type":"Point","coordinates":[-73.1153,44.5078]},"properties":{"GHCN_ID":"USC00432843","Elev":103.6,"State":"VT","Name":"ESSEX JUNCTION 1 N","Probability_of_Snow_Depth_GT_0":0.71,"Median_of_Snow_Depth_GT_0_inches":5,"Probability_of_Snowfall_GT_0":0.35,"Median_of_Snowfall_GT_0_inches":1,"Zone":5}},{"type":"Feature","geometry":{"type":"Point","coordinates":[-73.1244,43.0908]},"properties":{"GHCN_ID":"USC00438160","Elev":274.3,"State":"VT","Name":"SUNDERLAND 2","Probability_of_Snow_Depth_GT_0":0.59,"Median_of_Snow_Depth_GT_0_inches":4,"Probability_of_Snowfall_GT_0":0.31,"Median_of_Snowfall_GT_0_inches":1,"Zone":5}},{"type":"Feature","geometry":{"type":"Point","coordinates":[-73.1289,41.1583]},"properties":{"GHCN_ID":"USW00094702","Elev":1.5,"State":"CT","Name":"BRIDGEPORT SIKORSKY","Probability_of_Snow_Depth_GT_0":0.21,"Median_of_Snow_Depth_GT_0_inches":2,"Probability_of_Snowfall_GT_0":0.12,"Median_of_Snowfall_GT_0_inches":0,"Zone":3}},{"type":"Feature","geometry":{"type":"Point","coordinates":[-73.15,44.4683]},"properties":{"GHCN_ID":"USW00014742","Elev":100.6,"State":"VT","Name":"BURLINGTON INTL AP","Probability_of_Snow_Depth_GT_0":0.64,"Median_of_Snow_Depth_GT_0_inches":4,"Probability_of_Snowfall_GT_0":0.41,"Median_of_Snowfall_GT_0_inches":0,"Zone":5}},{"type":"Feature","geometry":{"type":"Point","coordinates":[-73.2208,41.9725]},"properties":{"GHCN_ID":"USC00065445","Elev":408.4,"State":"CT","Name":"NORFOLK 2 SW","Probability_of_Snow_Depth_GT_0":0.72,"Median_of_Snow_Depth_GT_0_inches":5,"Probability_of_Snowfall_GT_0":0.3,"Median_of_Snowfall_GT_0_inches":1,"Zone":5}},{"type":"Feature","geometry":{"type":"Point","coordinates":[-73.2228,42.7917]},"properties":{"GHCN_ID":"USC00436500","Elev":338.3,"State":"VT","Name":"POWNAL 1 NE","Probability_of_Snow_Depth_GT_0":0.59,"Median_of_Snow_Depth_GT_0_inches":4,"Probability_of_Snowfall_GT_0":0.18,"Median_of_Snowfall_GT_0_inches":2,"Zone":5}},{"type":"Feature","geometry":{"type":"Point","coordinates":[-73.2297,41.5536]},"properties":{"GHCN_ID":"USC00069775","Elev":198.1,"State":"CT","Name":"WOODBURY","Probability_of_Snow_Depth_GT_0":0.35,"Median_of_Snow_Depth_GT_0_inches":3,"Probability_of_Snowfall_GT_0":0.19,"Median_of_Snowfall_GT_0_inches":1,"Zone":4}},{"type":"Feature","geometry":{"type":"Point","coordinates":[-73.2333,42.55]},"properties":{"GHCN_ID":"USC00194075","Elev":376.7,"State":"MA","Name":"LANESBORO","Probability_of_Snow_Depth_GT_0":0.7,"Median_of_Snow_Depth_GT_0_inches":4,"Probability_of_Snowfall_GT_0":0.21,"Median_of_Snowfall_GT_0_inches":1,"Zone":5}},{"type":"Feature","geometry":{"type":"Point","coordinates":[-73.3031,44.6264]},"properties":{"GHCN_ID":"USC00437607","Elev":33.5,"State":"VT","Name":"SOUTH HERO","Probability_of_Snow_Depth_GT_0":0.59,"Median_of_Snow_Depth_GT_0_inches":4,"Probability_of_Snowfall_GT_0":0.25,"Median_of_Snowfall_GT_0_inches":0,"Zone":5}},{"type":"Feature","geometry":{"type":"Point","coordinates":[-73.4167,41.4]},"properties":{"GHCN_ID":"USC00061762","Elev":123.4,"State":"CT","Name":"DANBURY","Probability_of_Snow_Depth_GT_0":0.35,"Median_of_Snow_Depth_GT_0_inches":3,"Probability_of_Snowfall_GT_0":0.18,"Median_of_Snowfall_GT_0_inches":1,"Zone":4}},{"type":"Feature","geometry":{"type":"Point","coordinates":[-73.4319,43.1014]},"properties":{"GHCN_ID":"USC00300452","Elev":115.8,"State":"NY","Name":"BATTENVILLE","Probability_of_Snow_Depth_GT_0":0.57,"Median_of_Snow_Depth_GT_0_inches":4,"Probability_of_Snowfall_GT_0":0.17,"Median_of_Snowfall_GT_0_inches":1,"Zone":5}},{"type":"Feature","geometry":{"type":"Point","coordinates":[-73.4667,42.7833]},"properties":{"GHCN_ID":"USC00303360","Elev":475.5,"State":"NY","Name":"GRAFTON","Probability_of_Snow_Depth_GT_0":0.67,"Median_of_Snow_Depth_GT_0_inches":5,"Probability_of_Snowfall_GT_0":0.24,"Median_of_Snowfall_GT_0_inches":1,"Zone":5}},{"type":"Feature","geometry":{"type":"Point","coordinates":[-73.6,42.6167]},"properties":{"GHCN_ID":"USC00309303","Elev":195.1,"State":"NY","Name":"WEST SAND LAKE 2 S","Probability_of_Snow_Depth_GT_0":0.49,"Median_of_Snow_Depth_GT_0_inches":4,"Probability_of_Snowfall_GT_0":0.18,"Median_of_Snowfall_GT_0_inches":1,"Zone":4}},{"type":"Feature","geometry":{"type":"Point","coordinates":[-73.6167,43.35]},"properties":{"GHCN_ID":"USW00014750","Elev":97.8,"State":"NY","Name":"GLENS FALLS AP","Probability_of_Snow_Depth_GT_0":0.56,"Median_of_Snow_Depth_GT_0_inches":4,"Probability_of_Snowfall_GT_0":0.24,"Median_of_Snowfall_GT_0_inches":0,"Zone":5}},{"type":"Feature","geometry":{"type":"Point","coordinates":[-73.6183,40.7328]},"properties":{"GHCN_ID":"USC00305377","Elev":29.3,"State":"NY","Name":"MINEOLA","Probability_of_Snow_Depth_GT_0":0.13,"Median_of_Snow_Depth_GT_0_inches":3,"Probability_of_Snowfall_GT_0":0.05,"Median_of_Snowfall_GT_0_inches":0,"Zone":2}},{"type":"Feature","geometry":{"type":"Point","coordinates":[-73.6833,42.4333]},"properties":{"GHCN_ID":"USC00308746","Elev":91.4,"State":"NY","Name":"VALATIE 1 N","Probability_of_Snow_Depth_GT_0":0.47,"Median_of_Snow_Depth_GT_0_inches":4,"Probability_of_Snowfall_GT_0":0.11,"Median_of_Snowfall_GT_0_inches":2,"Zone":4}},{"type":"Feature","geometry":{"type":"Point","coordinates":[-73.6833,42.75]},"properties":{"GHCN_ID":"USC00308600","Elev":7.3,"State":"NY","Name":"TROY L&D","Probability_of_Snow_Depth_GT_0":0.45,"Median_of_Snow_Depth_GT_0_inches":3,"Probability_of_Snowfall_GT_0":0.14,"Median_of_Snowfall_GT_0_inches":1,"Zone":4}},{"type":"Feature","geometry":{"type":"Point","coordinates":[-73.7333,43.3333]},"properties":{"GHCN_ID":"USC00303284","Elev":153.6,"State":"NY","Name":"GLENS FALLS FARM","Probability_of_Snow_Depth_GT_0":0.63,"Median_of_Snow_Depth_GT_0_inches":4,"Probability_of_Snowfall_GT_0":0.16,"Median_of_Snowfall_GT_0_inches":1,"Zone":5}},{"type":"Feature","geometry":{"type":"Point","coordinates":[-73.7333,41.5333]},"properties":{"GHCN_ID":"USC00308304","Elev":278.9,"State":"NY","Name":"STORMVILLE","Probability_of_Snow_Depth_GT_0":0.41,"Median_of_Snow_Depth_GT_0_inches":4,"Probability_of_Snowfall_GT_0":0.2,"Median_of_Snowfall_GT_0_inches":1,"Zone":4}},{"type":"Feature","geometry":{"type":"Point","coordinates":[-73.7622,40.6386]},"properties":{"GHCN_ID":"USW00094789","Elev":3.4,"State":"NY","Name":"NEW YORK JFK INTL A","Probability_of_Snow_Depth_GT_0":0.12,"Median_of_Snow_Depth_GT_0_inches":3,"Probability_of_Snowfall_GT_0":0.11,"Median_of_Snowfall_GT_0_inches":0,"Zone":2}},{"type":"Feature","geometry":{"type":"Point","coordinates":[-73.7975,41.2664]},"properties":{"GHCN_ID":"USC00309670","Elev":204.2,"State":"NY","Name":"YORKTOWN HEIGHTS 1W","Probability_of_Snow_Depth_GT_0":0.4,"Median_of_Snow_Depth_GT_0_inches":3,"Probability_of_Snowfall_GT_0":0.13,"Median_of_Snowfall_GT_0_inches":1,"Zone":4}},{"type":"Feature","geometry":{"type":"Point","coordinates":[-73.8,42.25]},"properties":{"GHCN_ID":"USC00304025","Elev":18.3,"State":"NY","Name":"HUDSON COR.FACILITY","Probability_of_Snow_Depth_GT_0":0.34,"Median_of_Snow_Depth_GT_0_inches":4,"Probability_of_Snowfall_GT_0":0.08,"Median_of_Snowfall_GT_0_inches":0,"Zone":4}},{"type":"Feature","geometry":{"type":"Point","coordinates":[-73.8092,42.7431]},"properties":{"GHCN_ID":"USW00014735","Elev":95.1,"State":"NY","Name":"ALBANY AP","Probability_of_Snow_Depth_GT_0":0.45,"Median_of_Snow_Depth_GT_0_inches":3,"Probability_of_Snowfall_GT_0":0.26,"Median_of_Snowfall_GT_0_inches":0,"Zone":4}},{"type":"Feature","geometry":{"type":"Point","coordinates":[-73.8167,43.0333]},"properties":{"GHCN_ID":"USC00307484","Elev":94.5,"State":"NY","Name":"SARATOGA SPRINGS 4","Probability_of_Snow_Depth_GT_0":0.65,"Median_of_Snow_Depth_GT_0_inches":5,"Probability_of_Snowfall_GT_0":0.2,"Median_of_Snowfall_GT_0_inches":1,"Zone":5}},{"type":"Feature","geometry":{"type":"Point","coordinates":[-73.8222,44.9131]},"properties":{"GHCN_ID":"USC00302574","Elev":289.6,"State":"NY","Name":"ELLENBURG DEPOT","Probability_of_Snow_Depth_GT_0":0.79,"Median_of_Snow_Depth_GT_0_inches":5,"Probability_of_Snowfall_GT_0":0.3,"Median_of_Snowfall_GT_0_inches":1,"Zone":6}},{"type":"Feature","geometry":{"type":"Point","coordinates":[-73.8308,42.6925]},"properties":{"GHCN_ID":"USC00300048","Elev":89.3,"State":"NY","Name":"ALBANY NWFO UNIV","Probability_of_Snow_Depth_GT_0":0.48,"Median_of_Snow_Depth_GT_0_inches":4,"Probability_of_Snowfall_GT_0":0.27,"Median_of_Snowfall_GT_0_inches":0,"Zone":4}},{"type":"Feature","geometry":{"type":"Point","coordinates":[-73.8344,41.0072]},"properties":{"GHCN_ID":"USC00302129","Elev":61,"State":"NY","Name":"DOBBS FERRY ARDSLEY","Probability_of_Snow_Depth_GT_0":0.26,"Median_of_Snow_Depth_GT_0_inches":2,"Probability_of_Snowfall_GT_0":0.12,"Median_of_Snowfall_GT_0_inches":1,"Zone":3}},{"type":"Feature","geometry":{"type":"Point","coordinates":[-73.8803,40.7794]},"properties":{"GHCN_ID":"USW00014732","Elev":3.4,"State":"NY","Name":"NEW YORK LAGUARDIA","Probability_of_Snow_Depth_GT_0":0.12,"Median_of_Snow_Depth_GT_0_inches":3,"Probability_of_Snowfall_GT_0":0.11,"Median_of_Snowfall_GT_0_inches":0,"Zone":2}},{"type":"Feature","geometry":{"type":"Point","coordinates":[-73.8842,41.6267]},"properties":{"GHCN_ID":"USW00014757","Elev":50.6,"State":"NY","Name":"POUGHKEEPSIE DUTCHE","Probability_of_Snow_Depth_GT_0":0.31,"Median_of_Snow_Depth_GT_0_inches":3,"Probability_of_Snowfall_GT_0":0.11,"Median_of_Snowfall_GT_0_inches":1,"Zone":4}},{"type":"Feature","geometry":{"type":"Point","coordinates":[-73.8969,43.6611]},"properties":{"GHCN_ID":"USC00305925","Elev":271.3,"State":"NY","Name":"NORTH CREEK 5 SE","Probability_of_Snow_Depth_GT_0":0.87,"Median_of_Snow_Depth_GT_0_inches":6,"Probability_of_Snowfall_GT_0":0.27,"Median_of_Snowfall_GT_0_inches":1,"Zone":6}},{"type":"Feature","geometry":{"type":"Point","coordinates":[-73.9256,43.3203]},"properties":{"GHCN_ID":"USC00301708","Elev":246.3,"State":"NY","Name":"CONKLINGVILLE DAM","Probability_of_Snow_Depth_GT_0":0.7,"Median_of_Snow_Depth_GT_0_inches":5,"Probability_of_Snowfall_GT_0":0.22,"Median_of_Snowfall_GT_0_inches":1,"Zone":5}},{"type":"Feature","geometry":{"type":"Point","coordinates":[-73.9692,40.7789]},"properties":{"GHCN_ID":"USW00094728","Elev":39.6,"State":"NY","Name":"NEW YORK CNTRL PK T","Probability_of_Snow_Depth_GT_0":0.11,"Median_of_Snow_Depth_GT_0_inches":3,"Probability_of_Snowfall_GT_0":0.09,"Median_of_Snowfall_GT_0_inches":0,"Zone":2}},{"type":"Feature","geometry":{"type":"Point","coordinates":[-73.9855,44.2444]},"properties":{"GHCN_ID":"USC00304555","Elev":591.3,"State":"NY","Name":"LAKE PLACID 2 S","Probability_of_Snow_Depth_GT_0":0.87,"Median_of_Snow_Depth_GT_0_inches":6,"Probability_of_Snowfall_GT_0":0.39,"Median_of_Snowfall_GT_0_inches":1,"Zone":6}},{"type":"Feature","geometry":{"type":"Point","coordinates":[-74.0833,40.8667]},"properties":{"GHCN_ID":"USC00284931","Elev":15.2,"State":"NJ","Name":"LODI","Probability_of_Snow_Depth_GT_0":0.2,"Median_of_Snow_Depth_GT_0_inches":2,"Probability_of_Snowfall_GT_0":0.12,"Median_of_Snowfall_GT_0_inches":0,"Zone":3}},{"type":"Feature","geometry":{"type":"Point","coordinates":[-74.155,41.7681]},"properties":{"GHCN_ID":"USC00305426","Elev":379.5,"State":"NY","Name":"MOHONK LAKE","Probability_of_Snow_Depth_GT_0":0.54,"Median_of_Snow_Depth_GT_0_inches":5,"Probability_of_Snowfall_GT_0":0.2,"Median_of_Snowfall_GT_0_inches":1,"Zone":5}},{"type":"Feature","geometry":{"type":"Point","coordinates":[-74.1567,40.7514]},"properties":{"GHCN_ID":"USC00283704","Elev":7.3,"State":"NJ","Name":"HARRISON","Probability_of_Snow_Depth_GT_0":0.13,"Median_of_Snow_Depth_GT_0_inches":4,"Probability_of_Snowfall_GT_0":0.08,"Median_of_Snowfall_GT_0_inches":0,"Zone":2}},{"type":"Feature","geometry":{"type":"Point","coordinates":[-74.1628,41.5514]},"properties":{"GHCN_ID":"USC00308906","Elev":115.8,"State":"NY","Name":"WALDEN 1 ESE","Probability_of_Snow_Depth_GT_0":0.42,"Median_of_Snow_Depth_GT_0_inches":3,"Probability_of_Snowfall_GT_0":0.11,"Median_of_Snowfall_GT_0_inches":2,"Zone":4}},{"type":"Feature","geometry":{"type":"Point","coordinates":[-74.1694,40.6825]},"properties":{"GHCN_ID":"USW00014734","Elev":2.1,"State":"NJ","Name":"NEWARK INTL AP","Probability_of_Snow_Depth_GT_0":0.13,"Median_of_Snow_Depth_GT_0_inches":3,"Probability_of_Snowfall_GT_0":0.11,"Median_of_Snowfall_GT_0_inches":0,"Zone":2}},{"type":"Feature","geometry":{"type":"Point","coordinates":[-74.1981,43.0508]},"properties":{"GHCN_ID":"USC00300929","Elev":256,"State":"NY","Name":"BROADALBIN","Probability_of_Snow_Depth_GT_0":0.7,"Median_of_Snow_Depth_GT_0_inches":5,"Probability_of_Snowfall_GT_0":0.29,"Median_of_Snowfall_GT_0_inches":1,"Zone":5}},{"type":"Feature","geometry":{"type":"Point","coordinates":[-74.2011,42.3031]},"properties":{"GHCN_ID":"USC00309516","Elev":512.1,"State":"NY","Name":"WINDHAM 3 E","Probability_of_Snow_Depth_GT_0":0.29,"Median_of_Snow_Depth_GT_0_inches":3,"Probability_of_Snowfall_GT_0":0.11,"Median_of_Snowfall_GT_0_inches":0,"Zone":3}},{"type":"Feature","geometry":{"type":"Point","coordinates":[-74.2042,43.1592]},"properties":{"GHCN_ID":"USC00306062","Elev":240.8,"State":"NY","Name":"NORTHVILLE","Probability_of_Snow_Depth_GT_0":0.76,"Median_of_Snow_Depth_GT_0_inches":4,"Probability_of_Snowfall_GT_0":0.23,"Median_of_Snowfall_GT_0_inches":1,"Zone":6}},{"type":"Feature","geometry":{"type":"Point","coordinates":[-74.2219,43.9708]},"properties":{"GHCN_ID":"USC00305714","Elev":502,"State":"NY","Name":"NEWCOMB","Probability_of_Snow_Depth_GT_0":0.93,"Median_of_Snow_Depth_GT_0_inches":8,"Probability_of_Snowfall_GT_0":0.47,"Median_of_Snowfall_GT_0_inches":1,"Zone":7}},{"type":"Feature","geometry":{"type":"Point","coordinates":[-74.2478,43.3117]},"properties":{"GHCN_ID":"USC00303970","Elev":268.2,"State":"NY","Name":"HOPE","Probability_of_Snow_Depth_GT_0":0.89,"Median_of_Snow_Depth_GT_0_inches":6,"Probability_of_Snowfall_GT_0":0.26,"Median_of_Snowfall_GT_0_inches":1,"Zone":6}},{"type":"Feature","geometry":{"type":"Point","coordinates":[-74.2692,43.755]},"properties":{"GHCN_ID":"USC00304102","Elev":506,"State":"NY","Name":"INDIAN LAKE 2SW","Probability_of_Snow_Depth_GT_0":0.9,"Median_of_Snow_Depth_GT_0_inches":9,"Probability_of_Snowfall_GT_0":0.48,"Median_of_Snowfall_GT_0_inches":0,"Zone":7}},{"type":"Feature","geometry":{"type":"Point","coordinates":[-74.3081,44.8419]},"properties":{"GHCN_ID":"USC00304996","Elev":268.2,"State":"NY","Name":"MALONE","Probability_of_Snow_Depth_GT_0":0.78,"Median_of_Snow_Depth_GT_0_inches":5,"Probability_of_Snowfall_GT_0":0.38,"Median_of_Snowfall_GT_0_inches":1,"Zone":6}},{"type":"Feature","geometry":{"type":"Point","coordinates":[-74.3231,40.6669]},"properties":{"GHCN_ID":"USC00282023","Elev":22.9,"State":"NJ","Name":"CRANFORD","Probability_of_Snow_Depth_GT_0":0.15,"Median_of_Snow_Depth_GT_0_inches":3,"Probability_of_Snowfall_GT_0":0.06,"Median_of_Snowfall_GT_0_inches":0,"Zone":2}},{"type":"Feature","geometry":{"type":"Point","coordinates":[-74.3539,40.7436]},"properties":{"GHCN_ID":"USC00281335","Elev":54.9,"State":"NJ","Name":"CANOE BROOK","Probability_of_Snow_Depth_GT_0":0.16,"Median_of_Snow_Depth_GT_0_inches":4,"Probability_of_Snowfall_GT_0":0.07,"Median_of_Snowfall_GT_0_inches":0,"Zone":2}},{"type":"Feature","geometry":{"type":"Point","coordinates":[-74.3592,43.0492]},"properties":{"GHCN_ID":"USC00303319","Elev":246.9,"State":"NY","Name":"GLOVERSVILLE","Probability_of_Snow_Depth_GT_0":0.79,"Median_of_Snow_Depth_GT_0_inches":5,"Probability_of_Snowfall_GT_0":0.29,"Median_of_Snowfall_GT_0_inches":1,"Zone":6}},{"type":"Feature","geometry":{"type":"Point","coordinates":[-74.4,40.9]},"properties":{"GHCN_ID":"USC00280907","Elev":85.3,"State":"NJ","Name":"BOONTON 1 SE","Probability_of_Snow_Depth_GT_0":0.19,"Median_of_Snow_Depth_GT_0_inches":3,"Probability_of_Snowfall_GT_0":0.08,"Median_of_Snowfall_GT_0_inches":0,"Zone":2}},{"type":"Feature","geometry":{"type":"Point","coordinates":[-74.4167,42.0167]},"properties":{"GHCN_ID":"USC00307799","Elev":807.7,"State":"NY","Name":"SLIDE MTN","Probability_of_Snow_Depth_GT_0":0.77,"Median_of_Snow_Depth_GT_0_inches":6,"Probability_of_Snowfall_GT_0":0.27,"Median_of_Snowfall_GT_0_inches":1,"Zone":6}},{"type":"Feature","geometry":{"type":"Point","coordinates":[-74.4233,41.0347]},"properties":{"GHCN_ID":"USC00281582","Elev":231.6,"State":"NJ","Name":"CHARLOTTEBURG RESER","Probability_of_Snow_Depth_GT_0":0.22,"Median_of_Snow_Depth_GT_0_inches":3,"Probability_of_Snowfall_GT_0":0.08,"Median_of_Snowfall_GT_0_inches":0,"Zone":3}},{"type":"Feature","geometry":{"type":"Point","coordinates":[-74.4333,42.6667]},"properties":{"GHCN_ID":"USC00301595","Elev":356.3,"State":"NY","Name":"COBLESKILL 2 ESE","Probability_of_Snow_Depth_GT_0":0.5,"Median_of_Snow_Depth_GT_0_inches":4,"Probability_of_Snowfall_GT_0":0.14,"Median_of_Snowfall_GT_0_inches":1,"Zone":5}},{"type":"Feature","geometry":{"type":"Point","coordinates":[-74.4364,40.4719]},"properties":{"GHCN_ID":"USC00286055","Elev":26.2,"State":"NJ","Name":"NEW BRUNSWICK 3 SE","Probability_of_Snow_Depth_GT_0":0.17,"Median_of_Snow_Depth_GT_0_inches":2,"Probability_of_Snowfall_GT_0":0.09,"Median_of_Snowfall_GT_0_inches":0,"Zone":2}},{"type":"Feature","geometry":{"type":"Point","coordinates":[-74.4667,40.9667]},"properties":{"GHCN_ID":"USC00288402","Elev":243.8,"State":"NJ","Name":"SPLIT ROCK POND","Probability_of_Snow_Depth_GT_0":0.2,"Median_of_Snow_Depth_GT_0_inches":4,"Probability_of_Snowfall_GT_0":0.08,"Median_of_Snowfall_GT_0_inches":0,"Zone":3}},{"type":"Feature","geometry":{"type":"Point","coordinates":[-74.4989,41.0042]},"properties":{"GHCN_ID":"USC00286460","Elev":268.2,"State":"NJ","Name":"OAK RIDGE RSVR","Probability_of_Snow_Depth_GT_0":0.22,"Median_of_Snow_Depth_GT_0_inches":3,"Probability_of_Snowfall_GT_0":0.08,"Median_of_Snowfall_GT_0_inches":0,"Zone":3}},{"type":"Feature","geometry":{"type":"Point","coordinates":[-74.5642,40.265]},"properties":{"GHCN_ID":"USC00283951","Elev":30.5,"State":"NJ","Name":"HIGHTSTOWN 2 W","Probability_of_Snow_Depth_GT_0":0.13,"Median_of_Snow_Depth_GT_0_inches":3,"Probability_of_Snowfall_GT_0":0.07,"Median_of_Snowfall_GT_0_inches":0,"Zone":2}},{"type":"Feature","geometry":{"type":"Point","coordinates":[-74.6142,41.5917]},"properties":{"GHCN_ID":"USC00307210","Elev":387.1,"State":"NY","Name":"ROCK HILL 3 SW","Probability_of_Snow_Depth_GT_0":0.61,"Median_of_Snow_Depth_GT_0_inches":4,"Probability_of_Snowfall_GT_0":0.17,"Median_of_Snowfall_GT_0_inches":1,"Zone":5}},{"type":"Feature","geometry":{"type":"Point","coordinates":[-74.6333,42.4]},"properties":{"GHCN_ID":"USC00308160","Elev":542.2,"State":"NY","Name":"STAMFORD","Probability_of_Snow_Depth_GT_0":0.38,"Median_of_Snow_Depth_GT_0_inches":3,"Probability_of_Snowfall_GT_0":0.26,"Median_of_Snowfall_GT_0_inches":0,"Zone":4}},{"type":"Feature","geometry":{"type":"Point","coordinates":[-74.6531,40.6153]},"properties":{"GHCN_ID":"USC00288194","Elev":40.8,"State":"NJ","Name":"SOMERVILLE 4 NW","Probability_of_Snow_Depth_GT_0":0.21,"Median_of_Snow_Depth_GT_0_inches":3,"Probability_of_Snowfall_GT_0":0.09,"Median_of_Snowfall_GT_0_inches":0,"Zone":3}},{"type":"Feature","geometry":{"type":"Point","coordinates":[-74.6533,42.1392]},"properties":{"GHCN_ID":"USC00300254","Elev":399.3,"State":"NY","Name":"ARKVILLE 2 W","Probability_of_Snow_Depth_GT_0":0.49,"Median_of_Snow_Depth_GT_0_inches":3,"Probability_of_Snowfall_GT_0":0.19,"Median_of_Snowfall_GT_0_inches":1,"Zone":4}},{"type":"Feature","geometry":{"type":"Point","coordinates":[-74.6692,44.7583]},"properties":{"GHCN_ID":"USC00304647","Elev":142,"State":"NY","Name":"LAWRENCEVILLE 3 SW","Probability_of_Snow_Depth_GT_0":0.71,"Median_of_Snow_Depth_GT_0_inches":4,"Probability_of_Snowfall_GT_0":0.3,"Median_of_Snowfall_GT_0_inches":1,"Zone":5}},{"type":"Feature","geometry":{"type":"Point","coordinates":[-74.6847,41.38]},"properties":{"GHCN_ID":"USC00306774","Elev":143.3,"State":"NY","Name":"PORT JERVIS","Probability_of_Snow_Depth_GT_0":0.4,"Median_of_Snow_Depth_GT_0_inches":3,"Probability_of_Snowfall_GT_0":0.16,"Median_of_Snowfall_GT_0_inches":1,"Zone":4}},{"type":"Feature","geometry":{"type":"Point","coordinates":[-74.7172,41.3914]},"properties":{"GHCN_ID":"USC00365470","Elev":139.9,"State":"PA","Name":"MATAMORAS","Probability_of_Snow_Depth_GT_0":0.4,"Median_of_Snow_Depth_GT_0_inches":3,"Probability_of_Snowfall_GT_0":0.18,"Median_of_Snowfall_GT_0_inches":0,"Zone":4}},{"type":"Feature","geometry":{"type":"Point","coordinates":[-74.7322,40.7369]},"properties":{"GHCN_ID":"USC00287301","Elev":111.3,"State":"NJ","Name":"POTTERSVILLE 2 NNW","Probability_of_Snow_Depth_GT_0":0.22,"Median_of_Snow_Depth_GT_0_inches":2,"Probability_of_Snowfall_GT_0":0.08,"Median_of_Snowfall_GT_0_inches":0,"Zone":3}},{"type":"Feature","geometry":{"type":"Point","coordinates":[-74.74,41.8017]},"properties":{"GHCN_ID":"USC00304731","Elev":481.6,"State":"NY","Name":"LIBERTY 1 NE","Probability_of_Snow_Depth_GT_0":0.64,"Median_of_Snow_Depth_GT_0_inches":5,"Probability_of_Snowfall_GT_0":0.18,"Median_of_Snowfall_GT_0_inches":2,"Zone":5}},{"type":"Feature","geometry":{"type":"Point","coordinates":[-74.7592,41.0553]},"properties":{"GHCN_ID":"USC00286177","Elev":184.4,"State":"NJ","Name":"NEWTON","Probability_of_Snow_Depth_GT_0":0.36,"Median_of_Snow_Depth_GT_0_inches":3,"Probability_of_Snowfall_GT_0":0.12,"Median_of_Snowfall_GT_0_inches":1,"Zone":4}},{"type":"Feature","geometry":{"type":"Point","coordinates":[-74.8458,44.9358]},"properties":{"GHCN_ID":"USW00094725","Elev":65.2,"State":"NY","Name":"MASSENA INTL AP","Probability_of_Snow_Depth_GT_0":0.67,"Median_of_Snow_Depth_GT_0_inches":4,"Probability_of_Snowfall_GT_0":0.41,"Median_of_Snowfall_GT_0_inches":0,"Zone":5}},{"type":"Feature","geometry":{"type":"Point","coordinates":[-74.8667,43.8]},"properties":{"GHCN_ID":"USC00300668","Elev":536.4,"State":"NY","Name":"BIG MOOSE 3 SE","Probability_of_Snow_Depth_GT_0":0.89,"Median_of_Snow_Depth_GT_0_inches":9,"Probability_of_Snowfall_GT_0":0.4,"Median_of_Snowfall_GT_0_inches":2,"Zone":6}},{"type":"Feature","geometry":{"type":"Point","coordinates":[-74.9003,44.1481]},"properties":{"GHCN_ID":"USC00308944","Elev":460.2,"State":"NY","Name":"WANAKENA RNGR SCHOO","Probability_of_Snow_Depth_GT_0":0.87,"Median_of_Snow_Depth_GT_0_inches":8,"Probability_of_Snowfall_GT_0":0.42,"Median_of_Snowfall_GT_0_inches":1,"Zone":6}},{"type":"Feature","geometry":{"type":"Point","coordinates":[-74.9128,42.2558]},"properties":{"GHCN_ID":"USC00302036","Elev":432.8,"State":"NY","Name":"DELHI 2 SE","Probability_of_Snow_Depth_GT_0":0.6,"Median_of_Snow_Depth_GT_0_inches":4,"Probability_of_Snowfall_GT_0":0.29,"Median_of_Snowfall_GT_0_inches":1,"Zone":5}},{"type":"Feature","geometry":{"type":"Point","coordinates":[-74.9267,42.7167]},"properties":{"GHCN_ID":"USC00301752","Elev":383.1,"State":"NY","Name":"COOPERSTOWN","Probability_of_Snow_Depth_GT_0":0.68,"Median_of_Snow_Depth_GT_0_inches":4,"Probability_of_Snowfall_GT_0":0.32,"Median_of_Snowfall_GT_0_inches":1,"Zone":5}},{"type":"Feature","geometry":{"type":"Point","coordinates":[-75.0106,42.4694]},"properties":{"GHCN_ID":"USC00305113","Elev":373.4,"State":"NY","Name":"EMMONS","Probability_of_Snow_Depth_GT_0":0.61,"Median_of_Snow_Depth_GT_0_inches":4,"Probability_of_Snowfall_GT_0":0.35,"Median_of_Snowfall_GT_0_inches":0,"Zone":5}},{"type":"Feature","geometry":{"type":"Point","coordinates":[-75.0367,43.9]},"properties":{"GHCN_ID":"USC00308248","Elev":515.1,"State":"NY","Name":"STILLWATER RSVR","Probability_of_Snow_Depth_GT_0":0.92,"Median_of_Snow_Depth_GT_0_inches":10,"Probability_of_Snowfall_GT_0":0.5,"Median_of_Snowfall_GT_0_inches":1,"Zone":7}},{"type":"Feature","geometry":{"type":"Point","coordinates":[-75.1097,44.5772]},"properties":{"GHCN_ID":"USW00014743","Elev":136.6,"State":"NY","Name":"CANTON 4 SE","Probability_of_Snow_Depth_GT_0":0.7,"Median_of_Snow_Depth_GT_0_inches":4,"Probability_of_Snowfall_GT_0":0.36,"Median_of_Snowfall_GT_0_inches":1,"Zone":5}},{"type":"Feature","geometry":{"type":"Point","coordinates":[-75.1108,42.9097]},"properties":{"GHCN_ID":"USC00301424","Elev":402.3,"State":"NY","Name":"CHEPACHET","Probability_of_Snow_Depth_GT_0":0.73,"Median_of_Snow_Depth_GT_0_inches":4,"Probability_of_Snowfall_GT_0":0.26,"Median_of_Snowfall_GT_0_inches":1,"Zone":5}},{"type":"Feature","geometry":{"type":"Point","coordinates":[-75.1333,42.1667]},"properties":{"GHCN_ID":"USC00308936","Elev":378,"State":"NY","Name":"WALTON","Probability_of_Snow_Depth_GT_0":0.66,"Median_of_Snow_Depth_GT_0_inches":3,"Probability_of_Snowfall_GT_0":0.42,"Median_of_Snowfall_GT_0_inches":0,"Zone":5}},{"type":"Feature","geometry":{"type":"Point","coordinates":[-75.15,40.2]},"properties":{"GHCN_ID":"USW00014793","Elev":110,"State":"PA","Name":"WILLOW GROVE NAS","Probability_of_Snow_Depth_GT_0":0.17,"Median_of_Snow_Depth_GT_0_inches":2,"Probability_of_Snowfall_GT_0":0.08,"Median_of_Snowfall_GT_0_inches":0,"Zone":2}},{"type":"Feature","geometry":{"type":"Point","coordinates":[-75.1644,39.5461]},"properties":{"GHCN_ID":"USC00289910","Elev":29.9,"State":"NJ","Name":"WOODSTOWN PITTSGROV","Probability_of_Snow_Depth_GT_0":0.14,"Median_of_Snow_Depth_GT_0_inches":2,"Probability_of_Snowfall_GT_0":0.06,"Median_of_Snowfall_GT_0_inches":0,"Zone":2}},{"type":"Feature","geometry":{"type":"Point","coordinates":[-75.1653,41.4764]},"properties":{"GHCN_ID":"USC00363758","Elev":271.3,"State":"PA","Name":"HAWLEY 1 E","Probability_of_Snow_Depth_GT_0":0.51,"Median_of_Snow_Depth_GT_0_inches":4,"Probability_of_Snowfall_GT_0":0.17,"Median_of_Snowfall_GT_0_inches":1,"Zone":5}},{"type":"Feature","geometry":{"type":"Point","coordinates":[-75.1728,39.9575]},"properties":{"GHCN_ID":"USC00366886","Elev":18.3,"State":"PA","Name":"PHILLY FRANKLIN INS","Probability_of_Snow_Depth_GT_0":0.12,"Median_of_Snow_Depth_GT_0_inches":2,"Probability_of_Snowfall_GT_0":0.06,"Median_of_Snowfall_GT_0_inches":0,"Zone":2}},{"type":"Feature","geometry":{"type":"Point","coordinates":[-75.1906,41.0125]},"properties":{"GHCN_ID":"USC00368596","Elev":140.2,"State":"PA","Name":"STROUDSBURG","Probability_of_Snow_Depth_GT_0":0.35,"Median_of_Snow_Depth_GT_0_inches":3,"Probability_of_Snowfall_GT_0":0.16,"Median_of_Snowfall_GT_0_inches":1,"Zone":4}},{"type":"Feature","geometry":{"type":"Point","coordinates":[-75.22,39.4872]},"properties":{"GHCN_ID":"USC00287936","Elev":27.4,"State":"NJ","Name":"SEABROOK FARMS","Probability_of_Snow_Depth_GT_0":0.11,"Median_of_Snow_Depth_GT_0_inches":2,"Probability_of_Snowfall_GT_0":0.04,"Median_of_Snowfall_GT_0_inches":0,"Zone":2}},{"type":"Feature","geometry":{"type":"Point","coordinates":[-75.2333,41.4]},"properties":{"GHCN_ID":"USC00366762","Elev":414.5,"State":"PA","Name":"PAUPACK 1 WSW","Probability_of_Snow_Depth_GT_0":0.51,"Median_of_Snow_Depth_GT_0_inches":4,"Probability_of_Snowfall_GT_0":0.19,"Median_of_Snowfall_GT_0_inches":1,"Zone":5}},{"type":"Feature","geometry":{"type":"Point","coordinates":[-75.2686,40.5711]},"properties":{"GHCN_ID":"USC00368400","Elev":262.1,"State":"PA","Name":"SPRINGTOWN 1 NNE","Probability_of_Snow_Depth_GT_0":0.27,"Median_of_Snow_Depth_GT_0_inches":3,"Probability_of_Snowfall_GT_0":0.14,"Median_of_Snowfall_GT_0_inches":0,"Zone":3}},{"type":"Feature","geometry":{"type":"Point","coordinates":[-75.3242,42.3542]},"properties":{"GHCN_ID":"USC00308670","Elev":451.1,"State":"NY","Name":"UNADILLA 2 N","Probability_of_Snow_Depth_GT_0":0.62,"Median_of_Snow_Depth_GT_0_inches":4,"Probability_of_Snowfall_GT_0":0.24,"Median_of_Snowfall_GT_0_inches":1,"Zone":5}},{"type":"Feature","geometry":{"type":"Point","coordinates":[-75.3697,43.4361]},"properties":{"GHCN_ID":"USC00300785","Elev":472.4,"State":"NY","Name":"BOONVILLE 4 SSW","Probability_of_Snow_Depth_GT_0":0.89,"Median_of_Snow_Depth_GT_0_inches":12,"Probability_of_Snowfall_GT_0":0.54,"Median_of_Snowfall_GT_0_inches":1,"Zone":6}},{"type":"Feature","geometry":{"type":"Point","coordinates":[-75.3839,43.145]},"properties":{"GHCN_ID":"USW00094794","Elev":216.7,"State":"NY","Name":"UTICA ONEIDA CO AP","Probability_of_Snow_Depth_GT_0":0.66,"Median_of_Snow_Depth_GT_0_inches":4,"Probability_of_Snowfall_GT_0":0.45,"Median_of_Snowfall_GT_0_inches":0,"Zone":5}},{"type":"Feature","geometry":{"type":"Point","coordinates":[-75.4,43.2333]},"properties":{"GHCN_ID":"USW00014717","Elev":158.2,"State":"NY","Name":"GRIFFISS AFB","Probability_of_Snow_Depth_GT_0":0.67,"Median_of_Snow_Depth_GT_0_inches":3,"Probability_of_Snowfall_GT_0":0.46,"Median_of_Snowfall_GT_0_inches":0,"Zone":5}},{"type":"Feature","geometry":{"type":"Point","coordinates":[-75.4333,41.3833]},"properties":{"GHCN_ID":"USC00364008","Elev":417.6,"State":"PA","Name":"HOLLISTERVILLE","Probability_of_Snow_Depth_GT_0":0.47,"Median_of_Snow_Depth_GT_0_inches":4,"Probability_of_Snowfall_GT_0":0.16,"Median_of_Snowfall_GT_0_inches":2,"Zone":4}},{"type":"Feature","geometry":{"type":"Point","coordinates":[-75.4442,44.7281]},"properties":{"GHCN_ID":"USC00306164","Elev":85.3,"State":"NY","Name":"OGDENSBURG 4 NE","Probability_of_Snow_Depth_GT_0":0.66,"Median_of_Snow_Depth_GT_0_inches":4,"Probability_of_Snowfall_GT_0":0.2,"Median_of_Snowfall_GT_0_inches":1,"Zone":5}},{"type":"Feature","geometry":{"type":"Point","coordinates":[-75.4464,41.7394]},"properties":{"GHCN_ID":"USC00367029","Elev":548.6,"State":"PA","Name":"PLEASANT MT 1 W","Probability_of_Snow_Depth_GT_0":0.71,"Median_of_Snow_Depth_GT_0_inches":5,"Probability_of_Snowfall_GT_0":0.21,"Median_of_Snowfall_GT_0_inches":1,"Zone":5}},{"type":"Feature","geometry":{"type":"Point","coordinates":[-75.4492,40.6508]},"properties":{"GHCN_ID":"USW00014737","Elev":118.9,"State":"PA","Name":"ALLENTOWN INTL AP","Probability_of_Snow_Depth_GT_0":0.24,"Median_of_Snow_Depth_GT_0_inches":2,"Probability_of_Snowfall_GT_0":0.13,"Median_of_Snowfall_GT_0_inches":0,"Zone":3}},{"type":"Feature","geometry":{"type":"Point","coordinates":[-75.45,40.4667]},"properties":{"GHCN_ID":"USC00369995","Elev":178.3,"State":"PA","Name":"ZIONSVILLE 3 ESE","Probability_of_Snow_Depth_GT_0":0.22,"Median_of_Snow_Depth_GT_0_inches":2,"Probability_of_Snowfall_GT_0":0.1,"Median_of_Snowfall_GT_0_inches":0,"Zone":3}},{"type":"Feature","geometry":{"type":"Point","coordinates":[-75.4817,43.7975]},"properties":{"GHCN_ID":"USC00304912","Elev":262.1,"State":"NY","Name":"LOWVILLE","Probability_of_Snow_Depth_GT_0":0.8,"Median_of_Snow_Depth_GT_0_inches":6,"Probability_of_Snowfall_GT_0":0.47,"Median_of_Snowfall_GT_0_inches":1,"Zone":6}},{"type":"Feature","geometry":{"type":"Point","coordinates":[-75.5022,40.3856]},"properties":{"GHCN_ID":"USC00366681","Elev":91.4,"State":"PA","Name":"PALM 3 SE","Probability_of_Snow_Depth_GT_0":0.16,"Median_of_Snow_Depth_GT_0_inches":2,"Probability_of_Snowfall_GT_0":0.09,"Median_of_Snowfall_GT_0_inches":0,"Zone":2}},{"type":"Feature","geometry":{"type":"Point","coordinates":[-75.5067,42.6772]},"properties":{"GHCN_ID":"USC00307705","Elev":333.8,"State":"NY","Name":"SHERBURNE","Probability_of_Snow_Depth_GT_0":0.62,"Median_of_Snow_Depth_GT_0_inches":4,"Probability_of_Snowfall_GT_0":0.35,"Median_of_Snowfall_GT_0_inches":0,"Zone":5}},{"type":"Feature","geometry":{"type":"Point","coordinates":[-75.5122,44.3539]},"properties":{"GHCN_ID":"USC00303346","Elev":128,"State":"NY","Name":"GOUVERNEUR 3 NW","Probability_of_Snow_Depth_GT_0":0.74,"Median_of_Snow_Depth_GT_0_inches":4,"Probability_of_Snowfall_GT_0":0.36,"Median_of_Snowfall_GT_0_inches":1,"Zone":5}},{"type":"Feature","geometry":{"type":"Point","coordinates":[-75.5197,42.5117]},"properties":{"GHCN_ID":"USC00306085","Elev":301.4,"State":"NY","Name":"NORWICH","Probability_of_Snow_Depth_GT_0":0.61,"Median_of_Snow_Depth_GT_0_inches":4,"Probability_of_Snowfall_GT_0":0.38,"Median_of_Snowfall_GT_0_inches":0,"Zone":5}},{"type":"Feature","geometry":{"type":"Point","coordinates":[-75.5208,43.5753]},"properties":{"GHCN_ID":"USC00303851","Elev":537.4,"State":"NY","Name":"HIGHMARKET","Probability_of_Snow_Depth_GT_0":0.92,"Median_of_Snow_Depth_GT_0_inches":14,"Probability_of_Snowfall_GT_0":0.57,"Median_of_Snowfall_GT_0_inches":1,"Zone":7}},{"type":"Feature","geometry":{"type":"Point","coordinates":[-75.5481,41.1192]},"properties":{"GHCN_ID":"USC00365160","Elev":548.6,"State":"PA","Name":"LONG POND POCONO LA","Probability_of_Snow_Depth_GT_0":0.51,"Median_of_Snow_Depth_GT_0_inches":4,"Probability_of_Snowfall_GT_0":0.18,"Median_of_Snowfall_GT_0_inches":1,"Zone":5}},{"type":"Feature","geometry":{"type":"Point","coordinates":[-75.6047,41.9478]},"properties":{"GHCN_ID":"USC00368692","Elev":277.4,"State":"PA","Name":"SUSQUEHANNA","Probability_of_Snow_Depth_GT_0":0.49,"Median_of_Snow_Depth_GT_0_inches":3,"Probability_of_Snowfall_GT_0":0.23,"Median_of_Snowfall_GT_0_inches":1,"Zone":4}},{"type":"Feature","geometry":{"type":"Point","coordinates":[-75.635,39.9708]},"properties":{"GHCN_ID":"USC00369464","Elev":114.3,"State":"PA","Name":"WEST CHESTER 2 NW","Probability_of_Snow_Depth_GT_0":0.18,"Median_of_Snow_Depth_GT_0_inches":2,"Probability_of_Snowfall_GT_0":0.08,"Median_of_Snowfall_GT_0_inches":0,"Zone":2}},{"type":"Feature","geometry":{"type":"Point","coordinates":[-75.6961,40.8222]},"properties":{"GHCN_ID":"USC00364934","Elev":176.8,"State":"PA","Name":"LEHIGHTON 1SSW","Probability_of_Snow_Depth_GT_0":0.26,"Median_of_Snow_Depth_GT_0_inches":3,"Probability_of_Snowfall_GT_0":0.09,"Median_of_Snowfall_GT_0_inches":0,"Zone":3}},{"type":"Feature","geometry":{"type":"Point","coordinates":[-75.7158,43.8525]},"properties":{"GHCN_ID":"USC00303961","Elev":548.6,"State":"NY","Name":"HOOKER 12 NNW","Probability_of_Snow_Depth_GT_0":0.92,"Median_of_Snow_Depth_GT_0_inches":13,"Probability_of_Snowfall_GT_0":0.59,"Median_of_Snowfall_GT_0_inches":1,"Zone":7}},{"type":"Feature","geometry":{"type":"Point","coordinates":[-75.7264,42.8417]},"properties":{"GHCN_ID":"USC00305512","Elev":512.4,"State":"NY","Name":"MORRISVILLE 6 SW","Probability_of_Snow_Depth_GT_0":0.82,"Median_of_Snow_Depth_GT_0_inches":6,"Probability_of_Snowfall_GT_0":0.47,"Median_of_Snowfall_GT_0_inches":1,"Zone":6}},{"type":"Feature","geometry":{"type":"Point","coordinates":[-75.7269,41.3336]},"properties":{"GHCN_ID":"USW00014777","Elev":283.5,"State":"PA","Name":"WILKES-BARRE INTL A","Probability_of_Snow_Depth_GT_0":0.32,"Median_of_Snow_Depth_GT_0_inches":2,"Probability_of_Snowfall_GT_0":0.24,"Median_of_Snowfall_GT_0_inches":0,"Zone":4}},{"type":"Feature","geometry":{"type":"Point","coordinates":[-75.7506,40.0997]},"properties":{"GHCN_ID":"USC00363321","Elev":152.4,"State":"PA","Name":"GLENMOORE","Probability_of_Snow_Depth_GT_0":0.21,"Median_of_Snow_Depth_GT_0_inches":2,"Probability_of_Snowfall_GT_0":0.09,"Median_of_Snowfall_GT_0_inches":0,"Zone":3}},{"type":"Feature","geometry":{"type":"Point","coordinates":[-75.8417,43.3306]},"properties":{"GHCN_ID":"USC00301110","Elev":176.8,"State":"NY","Name":"CAMDEN","Probability_of_Snow_Depth_GT_0":0.78,"Median_of_Snow_Depth_GT_0_inches":5,"Probability_of_Snowfall_GT_0":0.4,"Median_of_Snowfall_GT_0_inches":2,"Zone":6}},{"type":"Feature","geometry":{"type":"Point","coordinates":[-75.8583,41.8511]},"properties":{"GHCN_ID":"USC00365915","Elev":432.8,"State":"PA","Name":"MONTROSE","Probability_of_Snow_Depth_GT_0":0.59,"Median_of_Snow_Depth_GT_0_inches":4,"Probability_of_Snowfall_GT_0":0.33,"Median_of_Snowfall_GT_0_inches":1,"Zone":5}},{"type":"Feature","geometry":{"type":"Point","coordinates":[-75.86,39.9847]},"properties":{"GHCN_ID":"USC00361591","Elev":195.1,"State":"PA","Name":"COATESVILLE 2 W","Probability_of_Snow_Depth_GT_0":0.24,"Median_of_Snow_Depth_GT_0_inches":3,"Probability_of_Snowfall_GT_0":0.13,"Median_of_Snowfall_GT_0_inches":0,"Zone":3}},{"type":"Feature","geometry":{"type":"Point","coordinates":[-75.8753,43.9761]},"properties":{"GHCN_ID":"USC00309000","Elev":151.5,"State":"NY","Name":"WATERTOWN","Probability_of_Snow_Depth_GT_0":0.69,"Median_of_Snow_Depth_GT_0_inches":5,"Probability_of_Snowfall_GT_0":0.36,"Median_of_Snowfall_GT_0_inches":1,"Zone":5}},{"type":"Feature","geometry":{"type":"Point","coordinates":[-75.8947,42.5433]},"properties":{"GHCN_ID":"USC00301492","Elev":320,"State":"NY","Name":"CINCINNATUS","Probability_of_Snow_Depth_GT_0":0.66,"Median_of_Snow_Depth_GT_0_inches":4,"Probability_of_Snowfall_GT_0":0.36,"Median_of_Snowfall_GT_0_inches":1,"Zone":5}},{"type":"Feature","geometry":{"type":"Point","coordinates":[-75.8975,40.0789]},"properties":{"GHCN_ID":"USC00364047","Elev":202.7,"State":"PA","Name":"HONEY BROOK 2 SSE","Probability_of_Snow_Depth_GT_0":0.17,"Median_of_Snow_Depth_GT_0_inches":2,"Probability_of_Snowfall_GT_0":0.06,"Median_of_Snowfall_GT_0_inches":0,"Zone":2}},{"type":"Feature","geometry":{"type":"Point","coordinates":[-75.9525,43.5217]},"properties":{"GHCN_ID":"USC00300608","Elev":201.2,"State":"NY","Name":"BENNETTS BRG","Probability_of_Snow_Depth_GT_0":0.84,"Median_of_Snow_Depth_GT_0_inches":8,"Probability_of_Snowfall_GT_0":0.43,"Median_of_Snowfall_GT_0_inches":2,"Zone":6}},{"type":"Feature","geometry":{"type":"Point","coordinates":[-75.9753,40.7947]},"properties":{"GHCN_ID":"USC00368758","Elev":281.9,"State":"PA","Name":"TAMAQUA","Probability_of_Snow_Depth_GT_0":0.36,"Median_of_Snow_Depth_GT_0_inches":3,"Probability_of_Snowfall_GT_0":0.14,"Median_of_Snowfall_GT_0_inches":1,"Zone":4}},{"type":"Feature","geometry":{"type":"Point","coordinates":[-75.9833,40.85]},"properties":{"GHCN_ID":"USC00368763","Elev":338.3,"State":"PA","Name":"TAMAQUA 4 N DAM","Probability_of_Snow_Depth_GT_0":0.37,"Median_of_Snow_Depth_GT_0_inches":3,"Probability_of_Snowfall_GT_0":0.11,"Median_of_Snowfall_GT_0_inches":1,"Zone":4}},{"type":"Feature","geometry":{"type":"Point","coordinates":[-75.985,42.1997]},"properties":{"GHCN_ID":"USW00004725","Elev":489.5,"State":"NY","Name":"BINGHAMTON","Probability_of_Snow_Depth_GT_0":0.59,"Median_of_Snow_Depth_GT_0_inches":3,"Probability_of_Snowfall_GT_0":0.46,"Median_of_Snowfall_GT_0_inches":0,"Zone":5}},{"type":"Feature","geometry":{"type":"Point","coordinates":[-75.9914,40.5511]},"properties":{"GHCN_ID":"USC00363632","Elev":116.7,"State":"PA","Name":"HAMBURG","Probability_of_Snow_Depth_GT_0":0.21,"Median_of_Snow_Depth_GT_0_inches":2,"Probability_of_Snowfall_GT_0":0.1,"Median_of_Snowfall_GT_0_inches":0,"Zone":3}},{"type":"Feature","geometry":{"type":"Point","coordinates":[-76.0217,43.9922]},"properties":{"GHCN_ID":"USW00094790","Elev":96.9,"State":"NY","Name":"WATERTOWN INTL AP","Probability_of_Snow_Depth_GT_0":0.58,"Median_of_Snow_Depth_GT_0_inches":5,"Probability_of_Snowfall_GT_0":0.42,"Median_of_Snowfall_GT_0_inches":1,"Zone":5}},{"type":"Feature","geometry":{"type":"Point","coordinates":[-76.0717,40.075]},"properties":{"GHCN_ID":"USC00366238","Elev":184.4,"State":"PA","Name":"NEW HOLLAND 2 SE","Probability_of_Snow_Depth_GT_0":0.17,"Median_of_Snow_Depth_GT_0_inches":3,"Probability_of_Snowfall_GT_0":0.11,"Median_of_Snowfall_GT_0_inches":0,"Zone":2}},{"type":"Feature","geometry":{"type":"Point","coordinates":[-76.0803,42.7603]},"properties":{"GHCN_ID":"USC00308627","Elev":578.8,"State":"NY","Name":"TULLY HEIBERG FORES","Probability_of_Snow_Depth_GT_0":0.8,"Median_of_Snow_Depth_GT_0_inches":5,"Probability_of_Snowfall_GT_0":0.44,"Median_of_Snowfall_GT_0_inches":1,"Zone":6}},{"type":"Feature","geometry":{"type":"Point","coordinates":[-76.1039,43.1111]},"properties":{"GHCN_ID":"USW00014771","Elev":125.9,"State":"NY","Name":"SYRACUSE HANCOCK IN","Probability_of_Snow_Depth_GT_0":0.58,"Median_of_Snow_Depth_GT_0_inches":4,"Probability_of_Snowfall_GT_0":0.5,"Median_of_Snowfall_GT_0_inches":1,"Zone":5}},{"type":"Feature","geometry":{"type":"Point","coordinates":[-76.1167,41.7833]},"properties":{"GHCN_ID":"USC00367727","Elev":265.2,"State":"PA","Name":"RUSHVILLE","Probability_of_Snow_Depth_GT_0":0.38,"Median_of_Snow_Depth_GT_0_inches":3,"Probability_of_Snowfall_GT_0":0.13,"Median_of_Snowfall_GT_0_inches":1,"Zone":4}},{"type":"Feature","geometry":{"type":"Point","coordinates":[-76.1353,40.8344]},"properties":{"GHCN_ID":"USC00365344","Elev":521.2,"State":"PA","Name":"MAHANOY CITY 2 N","Probability_of_Snow_Depth_GT_0":0.46,"Median_of_Snow_Depth_GT_0_inches":3,"Probability_of_Snowfall_GT_0":0.15,"Median_of_Snowfall_GT_0_inches":1,"Zone":4}},{"type":"Feature","geometry":{"type":"Point","coordinates":[-76.1489,41.1831]},"properties":{"GHCN_ID":"USC00368057","Elev":208.8,"State":"PA","Name":"SHICKSHINNY 3 N","Probability_of_Snow_Depth_GT_0":0.4,"Median_of_Snow_Depth_GT_0_inches":3,"Probability_of_Snowfall_GT_0":0.13,"Median_of_Snowfall_GT_0_inches":1,"Zone":4}},{"type":"Feature","geometry":{"type":"Point","coordinates":[-76.1833,42.6]},"properties":{"GHCN_ID":"USC00301799","Elev":344.1,"State":"NY","Name":"CORTLAND","Probability_of_Snow_Depth_GT_0":0.64,"Median_of_Snow_Depth_GT_0_inches":5,"Probability_of_Snowfall_GT_0":0.27,"Median_of_Snowfall_GT_0_inches":2,"Zone":5}},{"type":"Feature","geometry":{"type":"Point","coordinates":[-76.2742,40.05]},"properties":{"GHCN_ID":"USC00364763","Elev":82.3,"State":"PA","Name":"LANCASTER 2NE FLTR","Probability_of_Snow_Depth_GT_0":0.11,"Median_of_Snow_Depth_GT_0_inches":2,"Probability_of_Snowfall_GT_0":0.05,"Median_of_Snowfall_GT_0_inches":0,"Zone":2}},{"type":"Feature","geometry":{"type":"Point","coordinates":[-76.3178,42.0811]},"properties":{"GHCN_ID":"USC00306356","Elev":246.9,"State":"NY","Name":"OWEGO 3 WSW","Probability_of_Snow_Depth_GT_0":0.45,"Median_of_Snow_Depth_GT_0_inches":2,"Probability_of_Snowfall_GT_0":0.16,"Median_of_Snowfall_GT_0_inches":1,"Zone":4}},{"type":"Feature","geometry":{"type":"Point","coordinates":[-76.3311,42.5192]},"properties":{"GHCN_ID":"USC00303050","Elev":320,"State":"NY","Name":"FREEVILLE 1 NE","Probability_of_Snow_Depth_GT_0":0.58,"Median_of_Snow_Depth_GT_0_inches":3,"Probability_of_Snowfall_GT_0":0.27,"Median_of_Snowfall_GT_0_inches":1,"Zone":5}},{"type":"Feature","geometry":{"type":"Point","coordinates":[-76.4333,40.1167]},"properties":{"GHCN_ID":"USC00364778","Elev":109.7,"State":"PA","Name":"LANDISVILLE 2 NW","Probability_of_Snow_Depth_GT_0":0.19,"Median_of_Snow_Depth_GT_0_inches":2,"Probability_of_Snowfall_GT_0":0.1,"Median_of_Snowfall_GT_0_inches":0,"Zone":2}},{"type":"Feature","geometry":{"type":"Point","coordinates":[-76.4431,41.7511]},"properties":{"GHCN_ID":"USC00368905","Elev":231.6,"State":"PA","Name":"TOWANDA 1 S","Probability_of_Snow_Depth_GT_0":0.34,"Median_of_Snow_Depth_GT_0_inches":3,"Probability_of_Snowfall_GT_0":0.17,"Median_of_Snowfall_GT_0_inches":0,"Zone":4}},{"type":"Feature","geometry":{"type":"Point","coordinates":[-76.4492,42.4492]},"properties":{"GHCN_ID":"USC00304174","Elev":292.6,"State":"NY","Name":"ITHACA CORNELL UNIV","Probability_of_Snow_Depth_GT_0":0.54,"Median_of_Snow_Depth_GT_0_inches":3,"Probability_of_Snowfall_GT_0":0.33,"Median_of_Snowfall_GT_0_inches":0,"Zone":5}},{"type":"Feature","geometry":{"type":"Point","coordinates":[-76.4667,40.3333]},"properties":{"GHCN_ID":"USC00364896","Elev":137.2,"State":"PA","Name":"LEBANON 2 W","Probability_of_Snow_Depth_GT_0":0.15,"Median_of_Snow_Depth_GT_0_inches":3,"Probability_of_Snowfall_GT_0":0.06,"Median_of_Snowfall_GT_0_inches":0,"Zone":2}},{"type":"Feature","geometry":{"type":"Point","coordinates":[-76.4933,43.4622]},"properties":{"GHCN_ID":"USC00306314","Elev":106.7,"State":"NY","Name":"OSWEGO EAST","Probability_of_Snow_Depth_GT_0":0.64,"Median_of_Snow_Depth_GT_0_inches":5,"Probability_of_Snowfall_GT_0":0.52,"Median_of_Snowfall_GT_0_inches":1,"Zone":5}},{"type":"Feature","geometry":{"type":"Point","coordinates":[-76.4983,40.8208]},"properties":{"GHCN_ID":"USC00360457","Elev":309.4,"State":"PA","Name":"BEAR GAP","Probability_of_Snow_Depth_GT_0":0.19,"Median_of_Snow_Depth_GT_0_inches":2,"Probability_of_Snowfall_GT_0":0.08,"Median_of_Snowfall_GT_0_inches":0,"Zone":2}},{"type":"Feature","geometry":{"type":"Point","coordinates":[-76.5039,39.7342]},"properties":{"GHCN_ID":"USC00366289","Elev":243.8,"State":"PA","Name":"NEW PARK","Probability_of_Snow_Depth_GT_0":0.14,"Median_of_Snow_Depth_GT_0_inches":2,"Probability_of_Snowfall_GT_0":0.08,"Median_of_Snowfall_GT_0_inches":0,"Zone":2}},{"type":"Feature","geometry":{"type":"Point","coordinates":[-76.5447,42.9328]},"properties":{"GHCN_ID":"USC00300321","Elev":234.7,"State":"NY","Name":"AUBURN","Probability_of_Snow_Depth_GT_0":0.62,"Median_of_Snow_Depth_GT_0_inches":4,"Probability_of_Snowfall_GT_0":0.36,"Median_of_Snowfall_GT_0_inches":1,"Zone":5}},{"type":"Feature","geometry":{"type":"Point","coordinates":[-76.6175,40.9592]},"properties":{"GHCN_ID":"USC00362013","Elev":145.7,"State":"PA","Name":"DANVILLE","Probability_of_Snow_Depth_GT_0":0.23,"Median_of_Snow_Depth_GT_0_inches":2,"Probability_of_Snowfall_GT_0":0.1,"Median_of_Snowfall_GT_0_inches":0,"Zone":3}},{"type":"Feature","geometry":{"type":"Point","coordinates":[-76.6383,42.0025]},"properties":{"GHCN_ID":"USC00301413","Elev":250.5,"State":"NY","Name":"CHEMUNG","Probability_of_Snow_Depth_GT_0":0.4,"Median_of_Snow_Depth_GT_0_inches":2,"Probability_of_Snowfall_GT_0":0.12,"Median_of_Snowfall_GT_0_inches":1,"Zone":4}},{"type":"Feature","geometry":{"type":"Point","coordinates":[-76.75,39.9167]},"properties":{"GHCN_ID":"USC00369933","Elev":118.9,"State":"PA","Name":"YORK 3 SSW PUMP STN","Probability_of_Snow_Depth_GT_0":0.15,"Median_of_Snow_Depth_GT_0_inches":2,"Probability_of_Snowfall_GT_0":0.07,"Median_of_Snowfall_GT_0_inches":0,"Zone":2}},{"type":"Feature","geometry":{"type":"Point","coordinates":[-76.7633,40.1936]},"properties":{"GHCN_ID":"USW00014711","Elev":95.1,"State":"PA","Name":"MIDDLETOWN HARRISBU","Probability_of_Snow_Depth_GT_0":0.18,"Median_of_Snow_Depth_GT_0_inches":2,"Probability_of_Snowfall_GT_0":0.1,"Median_of_Snowfall_GT_0_inches":0,"Zone":2}},{"type":"Feature","geometry":{"type":"Point","coordinates":[-76.8028,39.7194]},"properties":{"GHCN_ID":"USC00185934","Elev":262.1,"State":"MD","Name":"MILLERS 4 NE","Probability_of_Snow_Depth_GT_0":0.22,"Median_of_Snow_Depth_GT_0_inches":3,"Probability_of_Snowfall_GT_0":0.12,"Median_of_Snowfall_GT_0_inches":0,"Zone":3}},{"type":"Feature","geometry":{"type":"Point","coordinates":[-76.8358,42.0997]},"properties":{"GHCN_ID":"USC00302610","Elev":288.6,"State":"NY","Name":"ELMIRA","Probability_of_Snow_Depth_GT_0":0.4,"Median_of_Snow_Depth_GT_0_inches":2,"Probability_of_Snowfall_GT_0":0.15,"Median_of_Snowfall_GT_0_inches":1,"Zone":4}},{"type":"Feature","geometry":{"type":"Point","coordinates":[-76.8464,41.6517]},"properties":{"GHCN_ID":"USC00361212","Elev":347.5,"State":"PA","Name":"CANTON","Probability_of_Snow_Depth_GT_0":0.36,"Median_of_Snow_Depth_GT_0_inches":2,"Probability_of_Snowfall_GT_0":0.18,"Median_of_Snowfall_GT_0_inches":0,"Zone":4}},{"type":"Feature","geometry":{"type":"Point","coordinates":[-76.8617,40.7831]},"properties":{"GHCN_ID":"USC00367931","Elev":128,"State":"PA","Name":"SELINSGROVE 2 S","Probability_of_Snow_Depth_GT_0":0.25,"Median_of_Snow_Depth_GT_0_inches":2,"Probability_of_Snowfall_GT_0":0.11,"Median_of_Snowfall_GT_0_inches":1,"Zone":3}},{"type":"Feature","geometry":{"type":"Point","coordinates":[-76.8636,39.8692]},"properties":{"GHCN_ID":"USC00368379","Elev":137.2,"State":"PA","Name":"SPRING GROVE","Probability_of_Snow_Depth_GT_0":0.18,"Median_of_Snow_Depth_GT_0_inches":2,"Probability_of_Snowfall_GT_0":0.08,"Median_of_Snowfall_GT_0_inches":0,"Zone":2}},{"type":"Feature","geometry":{"type":"Point","coordinates":[-76.8667,39.3333]},"properties":{"GHCN_ID":"USC00189750","Elev":140.2,"State":"MD","Name":"WOODSTOCK","Probability_of_Snow_Depth_GT_0":0.18,"Median_of_Snow_Depth_GT_0_inches":2,"Probability_of_Snowfall_GT_0":0.07,"Median_of_Snowfall_GT_0_inches":0,"Zone":2}},{"type":"Feature","geometry":{"type":"Point","coordinates":[-76.9217,41.2433]},"properties":{"GHCN_ID":"USW00014778","Elev":158.5,"State":"PA","Name":"WILLIAMSPORT","Probability_of_Snow_Depth_GT_0":0.28,"Median_of_Snow_Depth_GT_0_inches":2,"Probability_of_Snowfall_GT_0":0.19,"Median_of_Snowfall_GT_0_inches":0,"Zone":3}},{"type":"Feature","geometry":{"type":"Point","coordinates":[-76.9286,39.2553]},"properties":{"GHCN_ID":"USC00181862","Elev":112.8,"State":"MD","Name":"CLARKSVILLE 3 NNE","Probability_of_Snow_Depth_GT_0":0.13,"Median_of_Snow_Depth_GT_0_inches":2,"Probability_of_Snowfall_GT_0":0.07,"Median_of_Snowfall_GT_0_inches":0,"Zone":2}},{"type":"Feature","geometry":{"type":"Point","coordinates":[-76.9314,39.0303]},"properties":{"GHCN_ID":"USC00180700","Elev":44.2,"State":"MD","Name":"BELTSVILLE","Probability_of_Snow_Depth_GT_0":0.11,"Median_of_Snow_Depth_GT_0_inches":3,"Probability_of_Snowfall_GT_0":0.05,"Median_of_Snowfall_GT_0_inches":0,"Zone":2}},{"type":"Feature","geometry":{"type":"Point","coordinates":[-76.9883,39.5736]},